,Male to Female,Foreign to Local,Male,Female,Local,Foreign,High Network,Low Network,Connoisseur,Food Aestheticist,Patrons,First Visit,Visual Importance,Female Importance,Foreign Importance,Average Customer Network,Total Network,Number of Reviewers,lat,lon,target_small_name,target_long_name,country,city_long,city_short,county,city,street
0,0.71,1.16,3.27,2.92,2.9,3.21,3.15,2.98,3.09,3.19,,3.07,0.99,1.83,2.36,37.25,3948,106,35.1946842756134,-106.655947450787,BJ's,BJ's Restaurant & Brewhouse,United States,New Mexico,NM,Bernalillo County,Albuquerque,Cottonwood Loop
1,0.88,10.13,3.46,3.24,3.47,3.33,3.41,3.26,3.32,3.53,2.88,3.35,1.13,0.56,46.66,100.23,16738,167,32.8282677952901,-97.2036211630958,BJ's,BJ's Restaurant & Brewhouse,United States,Texas,TX,Tarrant County,Hurst,North East Mall Boulevard
2,0.88,3.74,2.95,3.08,3.11,2.99,3.11,2.92,3.11,3.16,2.8,3.03,1.56,1.11,8.25,165.39,131652,796,34.146442,-118.255264,BJ's,BJ's Restaurant & Brewhouse,United States,California,CA,Los Angeles County,Glendale,North Brand Boulevard
3,0.88,3.19,2.66,2.69,2.65,2.69,2.77,2.58,2.98,3.02,3.26,2.65,0.88,1.42,4.18,58.04,31634,545,37.944155,-121.738163,BJ's,BJ's Restaurant & Brewhouse,United States,California,CA,Contra Costa County,Brentwood,Sand Creek Road
4,0.98,2.8,3.06,3.38,3.08,3.27,3.26,3.17,3.33,3.24,2.5,3.21,1.23,1.71,6.25,40.74,3870,95,30.2689401,-89.7605855,BJ's,BJ's Restaurant & Brewhouse,United States,Louisiana,LA,St. Tammany Parish,Slidell,Town Center Parkway
5,0.76,2.35,3.08,3.06,2.98,3.11,3.19,2.95,3.29,3.46,2.6,3.08,0.72,0.91,2.76,35.08,10698,305,45.539044,-122.901205,BJ's,BJ's Restaurant & Brewhouse,United States,Oregon,OR,Washington County,Hillsboro,Northeast Cornell Road
6,0.76,1.21,3.2,3.08,3.13,3.14,3.18,3.07,3.34,3.37,2.6,3.15,1.19,0.66,1.22,78.43,27530,351,36.80816,-119.774574,BJ's,BJ's Restaurant & Brewhouse,United States,California,CA,Fresno County,Fresno,East Shaw Avenue
7,0.79,3.48,3.19,3.47,3.24,3.38,3.6,3.13,3.51,3.77,2.88,3.36,2.03,1.31,3.38,85.68,28790,336,39.534101,-119.716173,BJ's,BJ's Restaurant & Brewhouse,United States,Nevada,NV,Washoe County,Sparks,East Lincoln Way
8,0.66,3.71,3.01,3.15,3.01,3.12,3.26,2.93,3.34,3.39,3.61,3.08,1.84,0.97,4.33,144.57,62598,433,33.982,-117.70518,BJ's,BJ's Restaurant & Brewhouse,United States,California,CA,San Bernardino County,Chino Hills,Chino Hills Parkway
9,0.7,6.4,3.33,3.1,2.9,3.24,3.54,2.88,3.38,3.63,,3.2,0.82,1.36,12.07,53.62,7936,148,39.401925271055,-76.6005287045517,BJ's,BJ's Restaurant & Brewhouse,United States,Maryland,MD,Baltimore County,Towson,East Joppa Road
10,1.0,10.0,3.17,3.35,3.33,3.25,3.44,3.08,3.52,3.64,,3.26,2.37,1.04,10.96,51.18,6756,132,28.1928486904518,-82.3930573669634,BJ's,BJ's Restaurant & Brewhouse,United States,Florida,FL,Pasco County,Wesley Chapel,Florida 56
11,1.06,2.33,3.04,3.1,3.02,3.09,3.29,2.89,3.24,3.52,2.5,3.08,2.39,1.28,4.29,51.33,8880,173,30.5251565689626,-97.8188194406927,BJ's,BJ's Restaurant & Brewhouse,United States,Texas,TX,Williamson County,Cedar Park,East Whitestone Boulevard
12,1.05,12.54,2.87,3.09,2.54,3.01,3.18,2.77,3.13,3.28,3.79,2.96,1.7,1.38,25.24,84.62,29788,352,38.9126668023635,-77.2227288962099,BJ's,BJ's Restaurant & Brewhouse,United States,Virginia,VA,Fairfax County,Tysons,Leesburg Pike
13,0.92,1.6,3.47,3.39,3.43,3.42,3.51,3.38,3.29,3.34,,3.43,1.26,0.76,5.26,84.02,20332,242,33.385447,-111.689243,BJ's,BJ's Restaurant & Brewhouse,United States,Arizona,AZ,Maricopa County,Mesa,East Superstition Springs Boulevard
14,1.07,1.95,3.57,3.85,3.68,3.72,3.62,3.78,3.5,3.58,,3.71,1.8,1.03,1.76,86.6,9699,112,35.610319,-97.558016,BJ's,BJ's Restaurant & Brewhouse,United States,Oklahoma,OK,Oklahoma County,Oklahoma City,West Memorial Road
15,0.93,0.78,2.66,2.94,2.75,2.88,3.08,2.55,3.08,3.27,4.0,2.79,1.35,1.27,0.6,84.39,20169,239,35.099539344983,-106.567348140228,BJ's,BJ's Restaurant & Brewhouse,United States,New Mexico,NM,Bernalillo County,Albuquerque,Winrock Loop Northeast
16,1.14,1.28,3.54,3.69,3.39,3.78,3.54,3.67,3.41,3.54,3.0,3.61,0.77,1.16,1.32,68.66,7209,105,37.6801084947071,-97.2451712245819,BJ's,BJ's Restaurant & Brewhouse,United States,Kansas,KS,Sedgwick County,Wichita,East Kellogg Drive
17,0.71,12.77,3.18,3.18,3.23,3.18,3.4,2.98,3.44,3.37,3.15,3.19,1.79,1.19,16.93,80.24,34263,427,26.007065,-80.309536,BJ's,BJ's Restaurant & Brewhouse,United States,Florida,FL,Broward County,Pembroke Pines,Pines Boulevard
18,0.97,1.47,3.49,3.53,3.39,3.59,3.46,3.56,3.41,3.62,4.2,3.5,0.79,0.73,1.98,76.62,22296,291,33.6771738623303,-111.976578666417,BJ's,BJ's Restaurant & Brewhouse,United States,Arizona,AZ,Maricopa County,Phoenix,North Tatum Boulevard
19,0.86,2.73,3.28,3.16,3.4,3.15,3.3,3.11,3.32,3.46,3.31,3.22,0.91,1.15,2.78,68.79,26966,392,34.6068975648624,-118.155320628573,BJ's,BJ's Restaurant & Brewhouse,United States,California,CA,Los Angeles County,Palmdale,Mall Ring Road
20,0.98,3.58,2.24,2.39,2.15,2.36,2.49,2.17,2.58,2.67,2.7,2.31,0.87,1.16,7.5,55.29,23054,417,47.668776,-122.119592,BJ's,BJ's Restaurant & Brewhouse,United States,Washington,WA,King County,Redmond,166th Avenue Northeast
21,0.85,10.59,2.65,2.87,2.94,2.75,2.91,2.62,2.89,2.97,3.04,2.77,1.76,0.92,35.64,153.18,95891,626,34.036417,-118.085326,BJ's,BJ's Restaurant & Brewhouse,United States,California,CA,Los Angeles County,Montebello,Montebello Town Center
22,0.99,3.58,3.49,3.59,3.64,3.51,3.72,3.35,3.61,3.65,4.25,3.52,1.02,0.44,9.58,79.53,13123,165,31.0918313057204,-97.3858217022642,BJ's,BJ's Restaurant & Brewhouse,United States,Texas,TX,Bell County,Temple,South General Bruce Drive
23,1.0,1.37,2.9,3.19,2.76,3.25,3.1,2.98,3.5,3.25,,3.04,1.34,1.67,2.81,69.03,8007,116,33.5315777261671,-101.914376463705,BJ's,BJ's Restaurant & Brewhouse,United States,Texas,TX,Lubbock County,Lubbock,South Loop 289
24,0.82,6.39,3.41,3.36,3.2,3.41,3.52,3.23,3.47,3.48,2.96,3.39,1.36,1.06,17.71,70.97,28318,399,34.064981,-117.264659,BJ's,BJ's Restaurant & Brewhouse,United States,California,CA,San Bernardino County,San Bernardino,Gould Street
25,0.92,1.38,3.58,3.08,3.43,3.24,3.68,2.96,3.58,3.56,1.5,3.37,0.95,1.99,2.33,21.52,1076,50,32.5408923355054,-94.753498993814,BJ's,BJ's Restaurant & Brewhouse,United States,Texas,TX,Gregg County,Longview,West Loop 281
26,1.05,4.08,2.74,2.84,2.7,2.81,3.06,2.51,3.04,3.1,2.72,2.79,1.69,1.22,6.48,148.75,138342,930,37.560888,-122.282588,BJ's,BJ's Restaurant & Brewhouse,United States,California,CA,San Mateo County,San Mateo,Bridgepointe Parkway
27,0.92,4.1,3.0,3.23,3.0,3.15,3.45,2.78,3.29,3.53,,3.12,1.24,1.03,8.72,66.6,6793,102,32.808328,-96.623153,BJ's,BJ's Restaurant & Brewhouse,United States,Texas,TX,Dallas County,Mesquite,Town East Mall
28,1.0,1.53,2.89,2.66,2.63,2.87,2.97,,3.08,3.27,,2.78,0.41,5.21,1.53,33.43,2541,76,38.0670555960803,-78.4879437706939,BJ's,BJ's Restaurant & Brewhouse,United States,Virginia,VA,Albemarle County,Charlottesville,Seminole Trail
29,1.19,6.83,3.47,3.16,3.5,3.3,3.7,2.96,3.4,3.72,,3.33,1.1,0.88,3.05,42.46,3991,94,39.9948,-85.93003,BJ's,BJ's Restaurant & Brewhouse,United States,Indiana,IN,Hamilton County,Noblesville,Campus Parkway
30,0.9,5.44,3.15,3.29,3.28,3.21,3.44,3.0,3.37,3.44,3.11,3.23,1.78,1.09,4.97,127.24,87666,689,33.127135,-117.324024,BJ's,BJ's Restaurant & Brewhouse,United States,California,CA,San Diego County,Carlsbad,Paseo Del Norte
31,1.03,24.0,3.28,3.39,3.67,3.32,3.41,3.25,3.33,3.4,2.25,3.36,3.7,0.91,28.19,27.55,4133,150,39.5972258193801,-84.2328631191278,BJ's,BJ's Restaurant & Brewhouse,United States,Ohio,OH,Montgomery County,Miamisburg,Austin Landing Boulevard
32,0.97,0.54,3.61,3.93,3.77,3.77,3.79,3.75,3.77,3.87,3.92,3.76,2.44,1.03,0.85,163.05,83480,512,36.159552,-115.331914,BJ's,BJ's Restaurant & Brewhouse,United States,Nevada,NV,Clark County,Las Vegas,West Charleston Boulevard
33,1.01,1.74,2.72,2.92,2.65,2.92,2.98,2.63,2.96,3.03,2.5,2.81,2.23,0.77,3.18,37.51,8439,225,47.156968,-122.30293,BJ's,BJ's Restaurant & Brewhouse,United States,Washington,WA,Pierce County,Puyallup,9th Street Southwest
34,0.85,8.05,3.51,3.47,3.53,3.48,3.48,3.5,3.42,3.45,,3.49,1.81,1.6,15.61,62.58,10764,172,29.178717,-81.081579,BJ's,BJ's Restaurant & Brewhouse,United States,Florida,FL,Volusia County,Daytona Beach,West International Speedway Boulevard
35,0.8,3.85,2.81,3.44,3.25,3.14,3.38,2.89,3.52,3.96,2.5,3.19,0.59,1.36,3.38,31.23,3029,97,41.6610081779021,-81.3598733981976,BJ's,BJ's Restaurant & Brewhouse,United States,Ohio,OH,Lake County,Mentor,Mentor Avenue
36,1.01,3.99,3.04,3.05,3.11,3.03,3.3,2.84,3.19,3.3,3.05,3.05,1.94,0.94,5.13,33.63,11906,354,38.789628,-77.607474,BJ's,BJ's Restaurant & Brewhouse,United States,Virginia,VA,Prince William County,Gainesville,Wellington Road
37,0.8,5.0,3.65,3.62,3.94,3.57,3.8,3.46,3.94,4.06,3.17,3.66,2.81,1.62,8.5,51.27,5537,108,39.7635851,-86.3388597,BJ's,BJ's Restaurant & Brewhouse,United States,Indiana,IN,Hendricks County,Avon,East US Highway 36
38,1.16,2.96,2.78,2.95,2.54,2.97,2.94,2.72,3.0,3.23,3.5,2.87,0.68,2.85,1.34,68.23,6482,95,40.0177337581647,-105.257835529984,BJ's,BJ's Restaurant & Brewhouse,United States,Colorado,CO,Boulder County,Boulder,28th Street
39,0.95,6.46,3.58,3.71,3.71,3.64,3.74,3.55,3.73,3.82,3.12,3.65,1.43,0.99,17.66,75.63,15806,209,28.342796,-81.427674,BJ's,BJ's Restaurant & Brewhouse,United States,Florida,FL,Osceola County,Kissimmee,West Osceola Parkway
40,0.95,2.17,2.65,2.71,2.51,2.76,2.75,2.62,2.69,2.98,2.36,2.69,1.34,1.5,3.05,66.53,30803,463,33.643334,-117.594315,BJ's,BJ's Restaurant & Brewhouse,United States,California,CA,Orange County,Rancho Santa Margarita,El Paseo
41,0.75,1.39,3.34,3.13,3.25,3.21,3.28,3.2,3.27,3.17,1.25,3.25,0.9,1.34,1.16,33.09,6088,184,35.8582369011921,-86.4397366717458,BJ's,BJ's Restaurant & Brewhouse,United States,Tennessee,TN,Rutherford County,Murfreesboro,Medical Center Parkway
42,0.64,2.15,3.4,3.54,3.63,3.42,3.61,3.34,3.51,3.57,3.25,3.48,2.05,0.92,3.02,97.77,20630,211,29.5547459939494,-95.3936226562879,BJ's,BJ's Restaurant & Brewhouse,United States,Texas,TX,Brazoria County,Pearland,Town Center Drive
43,0.79,2.9,3.24,3.28,3.34,3.24,3.46,3.04,3.36,3.48,3.0,3.26,1.14,1.05,6.22,69.18,32377,468,33.519641,-117.155978,BJ's,BJ's Restaurant & Brewhouse,United States,California,CA,Riverside County,Temecula,Ynez Road
44,1.06,0.68,3.63,3.62,3.62,3.62,3.71,3.52,3.63,3.85,4.17,3.62,1.38,1.03,0.96,97.81,17899,183,29.649666,-98.448534,BJ's,BJ's Restaurant & Brewhouse,United States,Texas,TX,Bexar County,San Antonio,U.S. 281
45,0.96,1.81,3.23,3.13,3.0,3.28,3.23,3.1,3.27,3.43,4.0,3.19,1.44,1.27,2.08,38.29,1723,45,41.0235648,-80.6625951,BJ's,BJ's Restaurant & Brewhouse,United States,Ohio,OH,Mahoning County,Boardman,Market Street
46,1.21,7.95,3.05,3.12,2.95,3.1,3.27,2.91,3.05,3.24,2.7,3.07,1.59,0.92,41.08,104.71,19686,188,39.888122,-105.074415,BJ's,BJ's Restaurant & Brewhouse,United States,Colorado,CO,Jefferson County,Westminster,Town Center Drive
47,0.79,4.23,3.09,3.26,2.99,3.23,3.33,3.07,3.47,3.5,3.29,3.17,1.6,0.9,6.75,125.6,88043,701,34.077549,-117.553361,BJ's,BJ's Restaurant & Brewhouse,United States,California,CA,San Bernardino County,Rancho Cucamonga,Fourth Street
48,1.52,3.59,3.15,2.85,3.14,3.0,3.24,2.82,3.12,3.34,4.5,3.02,1.37,1.26,2.99,29.34,2963,101,34.7316524447806,-92.3955693558197,BJ's,BJ's Restaurant & Brewhouse,United States,Arkansas,AR,Pulaski County,Little Rock,South Shackleford Road
49,0.95,3.04,3.05,3.34,2.93,3.29,3.32,3.05,3.3,3.28,2.5,3.22,0.79,1.21,6.87,40.01,4521,113,31.513761,-97.188868,BJ's,BJ's Restaurant & Brewhouse,United States,Texas,TX,McLennan County,Waco,West Waco Drive
50,0.8,3.56,3.07,3.1,2.99,3.11,3.21,2.95,3.29,3.34,3.04,3.08,1.57,1.06,5.78,159.92,142805,893,33.72973,-117.9886,BJ's,BJ's Restaurant & Brewhouse,United States,California,CA,Orange County,Huntington Beach,Beach Boulevard
51,1.11,7.75,2.56,2.45,2.6,2.5,2.69,2.31,2.73,2.87,3.12,2.48,1.23,0.5,23.69,138.8,72868,525,34.4175062340536,-118.561574558738,BJ's,BJ's Restaurant & Brewhouse,United States,California,CA,Los Angeles County,Santa Clarita,Town Center Drive
52,0.95,3.34,2.58,2.46,2.48,2.53,2.75,2.31,2.87,2.9,2.87,2.52,0.9,0.69,7.6,72.19,34797,482,38.004952,-122.544382,BJ's,BJ's Restaurant & Brewhouse,United States,California,CA,Marin County,San Rafael,
53,1.06,2.85,2.83,2.82,2.83,2.82,2.93,2.72,3.19,3.38,2.25,2.85,1.76,1.91,3.13,77.69,14373,185,26.72248,-80.086808,BJ's,BJ's Restaurant & Brewhouse,United States,Florida,FL,Palm Beach County,West Palm Beach,Palm Beach Lakes Boulevard
54,0.75,21.67,2.64,2.71,2.84,2.67,2.86,2.5,2.92,2.95,2.51,2.68,1.31,0.9,59.97,163.26,281302,1723,37.6354850660817,-122.418783722287,BJ's,BJ's Restaurant & Brewhouse,United States,California,CA,San Mateo County,San Bruno,
55,0.78,1.22,3.38,3.45,3.39,3.44,3.56,3.25,3.78,4.12,4.5,3.4,0.53,1.27,1.29,35.38,3220,91,33.1773323953326,-97.0960484504013,BJ's,BJ's Restaurant & Brewhouse,United States,Texas,TX,Denton County,Denton,South Interstate 35 East
56,0.9,2.59,3.41,3.69,3.47,3.59,3.68,3.43,3.65,3.68,3.78,3.54,1.78,1.09,3.52,130.72,71375,546,36.0157947429433,-115.118127487578,BJ's,BJ's Restaurant & Brewhouse,United States,Nevada,NV,Clark County,Las Vegas,South Eastern Avenue
57,1.16,2.21,3.05,3.39,3.09,3.26,3.4,3.02,3.21,3.43,3.0,3.19,1.14,2.32,4.92,47.32,5016,106,39.19528,-76.81426,BJ's,BJ's Restaurant & Brewhouse,United States,Maryland,MD,Howard County,Columbia,Columbia Crossing Circle
58,1.01,1.48,3.28,3.31,3.19,3.36,3.39,3.19,3.46,3.35,2.4,3.3,1.07,3.89,2.57,65.59,12528,191,44.0694738157202,-123.104025446503,BJ's,BJ's Restaurant & Brewhouse,United States,Oregon,OR,Lane County,Eugene,Valley River Way
59,0.67,60.2,3.09,3.22,3.0,3.17,3.41,2.93,3.35,3.62,3.3,3.16,2.18,1.4,129.59,88.4,27049,306,25.7864848302369,-80.3681708551559,BJ's,BJ's Restaurant & Brewhouse,United States,Florida,FL,Miami-Dade County,Doral,Northwest 107th Avenue
60,1.11,4.27,3.49,3.52,3.27,3.56,3.65,3.36,3.56,3.58,3.67,3.5,1.37,2.49,12.4,63.39,10016,158,28.016098,-82.734984,BJ's,BJ's Restaurant & Brewhouse,United States,Florida,FL,Pinellas County,Clearwater,Countryside Boulevard
61,0.71,0.65,3.13,3.17,3.15,3.16,3.27,3.03,3.21,3.21,3.26,3.16,1.39,1.13,1.07,134.82,143316,1063,37.251119,-121.86376,BJ's,BJ's Restaurant & Brewhouse,United States,California,CA,Santa Clara County,San Jose,Blossom Hill Road
62,0.86,1.9,2.79,2.84,2.82,2.81,2.94,2.69,3.06,3.36,2.81,2.82,0.67,0.57,5.37,108.81,55274,508,37.6871168351089,-121.052809407395,BJ's,BJ's Restaurant & Brewhouse,United States,California,CA,Stanislaus County,Modesto,
63,0.89,2.68,3.11,3.55,3.24,3.38,3.6,3.09,3.33,3.45,4.0,3.33,1.65,2.68,5.4,42.41,5938,140,26.492133,-81.789623,BJ's,BJ's Restaurant & Brewhouse,United States,Florida,FL,Lee County,Fort Myers,University Plaza Drive
64,0.67,13.43,3.14,3.29,3.29,3.22,3.33,3.13,3.28,3.23,2.67,3.23,1.0,0.43,32.02,127.52,25759,202,29.545131,-95.132366,BJ's,BJ's Restaurant & Brewhouse,United States,Texas,TX,Harris County,Webster,Bay Area Boulevard
65,1.32,1.64,2.87,3.39,3.64,2.76,3.16,3.0,3.15,3.3,,3.09,1.34,0.82,1.55,39.78,3779,95,40.0558408039014,-82.9098589682058,BJ's,BJ's Restaurant & Brewhouse,United States,Ohio,OH,Franklin County,Columbus,Stelzer Road
66,1.17,1.12,3.4,3.83,3.36,3.81,3.57,3.63,3.81,4.08,,3.6,2.01,1.16,0.69,34.96,3111,89,30.475602,-87.2107873,BJ's,BJ's Restaurant & Brewhouse,United States,Florida,FL,Escambia County,Pensacola,North 9th Avenue
67,0.8,6.1,2.82,2.83,2.82,2.83,2.96,2.7,2.97,3.08,2.61,2.83,1.29,0.9,9.82,94.76,91537,966,37.967179,-122.061942,BJ's,BJ's Restaurant & Brewhouse,United States,California,CA,Contra Costa County,Concord,Sun Valley Mall
68,1.03,7.65,3.18,3.5,2.96,3.39,3.42,3.29,3.36,3.46,4.75,3.33,1.5,0.73,12.77,61.44,13825,225,41.0964307072893,-74.0164058979718,BJ's,BJ's Restaurant & Brewhouse,United States,New York,NY,Rockland County,Nanuet,Fashion Drive
69,1.32,1.68,3.12,2.66,2.63,3.09,3.2,2.71,3.1,3.08,,2.92,0.58,0.78,1.89,22.66,2311,102,40.52422,-105.027506,BJ's,BJ's Restaurant & Brewhouse,United States,Colorado,CO,Larimer County,Fort Collins,East Harmony Road
70,0.87,12.92,2.75,2.88,2.76,2.82,3.09,2.54,2.96,3.26,3.08,2.8,2.34,1.54,12.57,84.61,29445,348,26.250383026029,-80.2539590490001,BJ's,BJ's Restaurant & Brewhouse,United States,Florida,FL,Broward County,Coral Springs,North University Drive
71,1.0,2.05,2.77,3.34,3.0,3.09,3.46,2.65,3.25,3.35,2.0,3.06,1.0,0.84,4.16,54.7,10174,186,30.1853848769778,-95.4513479508737,BJ's,BJ's Restaurant & Brewhouse,United States,Texas,TX,Montgomery County,Shenandoah,North Freeway Service Road
72,1.17,0.79,3.13,3.18,3.12,3.19,3.38,2.93,3.3,3.52,2.5,3.16,1.45,0.98,0.6,89.17,33349,374,30.3922833167672,-97.7324542751691,BJ's,BJ's Restaurant & Brewhouse,United States,Texas,TX,Travis County,Austin,Texas 1 Loop
73,0.74,6.55,3.75,3.76,3.9,3.73,3.69,3.8,3.73,3.88,3.75,3.75,1.31,1.21,35.71,70.0,21141,302,33.551939,-112.269247,BJ's,BJ's Restaurant & Brewhouse,United States,Arizona,AZ,Maricopa County,Peoria,West Northern Avenue
74,1.2,22.04,2.87,2.82,2.88,2.85,3.05,2.64,3.09,3.15,2.7,2.85,2.07,1.15,49.52,103.95,62264,599,33.6126857610195,-117.711256274571,BJ's,BJ's Restaurant & Brewhouse,United States,California,CA,Orange County,Laguna Hills,El Toro Road
75,0.86,3.99,2.82,2.72,2.71,2.78,3.02,2.53,3.12,3.21,2.75,2.77,1.48,0.85,4.26,137.71,72159,524,34.14542,-118.14563,BJ's,BJ's Restaurant & Brewhouse,United States,California,CA,Los Angeles County,Pasadena,East Colorado Boulevard
76,1.18,1.32,3.25,3.03,3.07,3.2,3.23,3.06,3.27,3.33,3.5,3.13,1.5,1.23,0.91,65.77,11313,172,30.481763,-81.639015,BJ's,BJ's Restaurant & Brewhouse,United States,Florida,FL,Duval County,Jacksonville,Max Leggett Parkway
77,1.02,1.73,3.15,3.26,3.1,3.26,3.38,3.01,3.38,3.52,3.5,3.21,0.71,1.83,3.08,38.08,7997,210,39.3833929249114,-77.4032746704126,BJ's,BJ's Restaurant & Brewhouse,United States,Maryland,MD,Frederick County,Frederick,Spectrum Drive
78,0.91,0.91,2.65,3.68,3.45,2.9,3.48,2.9,3.43,3.5,,3.19,2.17,3.09,1.68,54.83,2303,42,39.1569395917276,-86.4976093009588,BJ's,BJ's Restaurant & Brewhouse,United States,Indiana,IN,Monroe County,Bloomington,South College Mall Road
79,1.12,1.7,3.0,2.98,2.45,3.3,3.25,2.68,3.38,3.36,2.5,3.0,0.61,3.77,2.54,28.4,2528,89,41.133903503418,-81.6182556152344,BJ's,BJ's Restaurant & Brewhouse,United States,Ohio,OH,Summit County,Fairlawn,West Market Street
80,0.92,1.51,2.46,2.64,2.4,2.66,2.66,2.45,2.77,2.87,2.81,2.55,0.81,1.32,2.62,43.61,18273,419,36.716782,-121.654329,BJ's,BJ's Restaurant & Brewhouse,United States,California,CA,Monterey County,Salinas,North Main Street
81,1.04,1.94,3.37,3.4,3.31,3.43,3.43,3.35,3.49,3.54,3.7,3.37,1.15,1.65,3.41,80.51,21978,273,39.712339,-104.819759,BJ's,BJ's Restaurant & Brewhouse,United States,Colorado,CO,Arapahoe County,Aurora,East Cedar Avenue
82,0.86,8.42,3.38,3.33,3.46,3.34,3.45,3.26,3.53,3.57,2.98,3.37,1.59,0.84,32.17,137.48,102282,744,32.780008,-117.010161,BJ's,BJ's Restaurant & Brewhouse,United States,California,CA,San Diego County,La Mesa,
83,1.0,1.07,3.27,3.59,3.71,3.15,3.51,3.34,3.43,3.5,,3.43,1.74,0.98,1.18,98.93,18599,188,28.068431,-82.576694,BJ's,BJ's Restaurant & Brewhouse,United States,Florida,FL,Hillsborough County,Tampa,
84,0.77,15.84,2.9,3.01,2.72,2.98,3.18,2.75,3.25,3.29,3.04,2.96,1.35,1.17,25.64,128.69,160348,1246,37.528065,-122.005751,BJ's,BJ's Restaurant & Brewhouse,United States,California,CA,Alameda County,Newark,Mowry Avenue
85,1.17,0.77,2.92,2.81,2.73,3.06,3.25,2.55,3.28,3.42,2.5,2.88,1.58,1.05,0.88,64.78,7579,117,32.6779555021331,-97.3971939410431,BJ's,BJ's Restaurant & Brewhouse,United States,Texas,TX,Tarrant County,Fort Worth,South Hulen Street
86,1.24,2.45,3.1,3.41,3.23,3.24,3.36,3.03,3.35,3.85,,3.24,1.83,1.71,4.15,90.91,6909,76,26.1951034225506,-98.2595439663172,BJ's,BJ's Restaurant & Brewhouse,United States,Texas,TX,Hidalgo County,McAllen,West Frontage Road
87,0.99,6.96,3.19,3.2,3.14,3.2,3.42,3.02,3.36,3.54,3.5,3.2,1.46,0.84,5.65,54.1,12065,223,28.375317789931,-81.5024265407432,BJ's,BJ's Restaurant & Brewhouse,United States,Florida,FL,Orange County,Orlando,Vineland Avenue
88,1.18,0.7,3.85,3.78,3.74,3.93,3.72,3.92,3.8,3.92,4.5,3.82,1.82,1.99,0.99,70.44,9227,131,38.248463,-85.607355,BJ's,BJ's Restaurant & Brewhouse,United States,Kentucky,KY,Jefferson County,Louisville,Christian Way
89,1.01,1.01,3.05,3.34,3.22,3.18,3.38,3.04,3.37,3.73,2.5,3.21,1.86,1.53,1.81,84.4,12407,147,30.43186381345,-84.2501211242981,BJ's,BJ's Restaurant & Brewhouse,United States,Florida,FL,Leon County,Tallahassee,Apalachee Parkway
90,0.83,0.78,3.18,3.13,3.05,3.29,3.28,3.05,3.36,3.41,3.25,3.16,2.68,0.73,0.52,86.21,40089,465,36.269812,-115.261465,BJ's,BJ's Restaurant & Brewhouse,United States,Nevada,NV,Clark County,Las Vegas,Centennial Center Boulevard
91,0.81,1.07,2.5,2.44,2.31,2.61,2.72,2.22,2.6,2.74,2.65,2.47,1.08,1.03,1.6,48.23,28552,592,38.458443,-122.729828,BJ's,BJ's Restaurant & Brewhouse,United States,California,CA,Sonoma County,Santa Rosa,Coddingtown Center
92,1.04,14.5,2.76,3.05,2.58,2.93,3.01,2.85,2.96,3.09,,2.9,1.12,0.48,193.98,126.84,23592,186,33.54215,-117.783618,BJ's,BJ's Restaurant & Brewhouse,United States,California,CA,Orange County,Laguna Beach,South Coast Highway
93,0.92,2.2,3.07,3.15,2.98,3.17,3.29,2.92,3.3,3.41,3.29,3.11,1.29,1.13,3.03,169.05,151807,898,33.729492,-117.787022,BJ's,BJ's Restaurant & Brewhouse,United States,California,CA,Orange County,Irvine,Jamboree Road
94,0.88,4.33,2.88,2.81,2.94,2.82,3.04,2.65,3.02,3.17,2.55,2.85,1.84,1.01,5.89,108.83,71939,661,33.0691322,-117.06819,BJ's,BJ's Restaurant & Brewhouse,United States,California,CA,San Diego County,Escondido,Via Rancho Parkway
95,0.7,1.12,3.02,3.25,3.18,3.14,3.35,2.95,3.33,3.47,2.74,3.16,1.82,0.6,1.01,137.26,86473,630,38.601223,-121.428035,BJ's,BJ's Restaurant & Brewhouse,United States,California,CA,Sacramento County,Sacramento,Arden Way
96,0.8,4.44,3.17,3.22,2.87,3.27,3.34,3.08,3.33,3.46,3.64,3.19,1.83,0.78,8.69,105.24,58408,555,33.936656,-118.121626,BJ's,BJ's Restaurant & Brewhouse,United States,California,CA,Los Angeles County,Downey,
97,1.2,2.67,3.33,3.27,3.33,3.29,3.5,3.06,3.73,3.88,,3.3,0.75,0.5,1.64,56.45,1863,33,34.06881,-81.1638,BJ's,BJ's Restaurant & Brewhouse,United States,South Carolina,SC,Lexington County,Columbia,Harbison Boulevard
98,1.0,1.7,3.38,3.56,3.24,3.6,3.54,3.4,3.78,3.84,,3.47,1.37,0.91,3.31,35.35,3535,100,39.7667718776194,-84.0538716448076,BJ's,BJ's Restaurant & Brewhouse,United States,Ohio,OH,Greene County,Beavercreek,Fairfield Commons Boulevard
99,1.21,2.2,3.14,3.86,3.1,3.64,3.61,3.29,3.31,3.44,,3.47,1.15,0.9,1.76,59.81,3828,64,35.461492,-97.652234,BJ's,BJ's Restaurant & Brewhouse,United States,Oklahoma,OK,Oklahoma County,Oklahoma City,Outlet Shoppes Drive
100,0.89,1.56,3.64,3.15,3.41,3.36,3.7,3.06,3.46,3.42,,3.38,1.97,0.82,5.47,90.89,9089,100,31.724236,-106.307534,BJ's,BJ's Restaurant & Brewhouse,United States,Texas,TX,El Paso County,El Paso,Gateway Boulevard West
101,1.0,0.64,3.19,3.27,3.15,3.34,3.25,3.21,3.27,3.31,3.1,3.24,0.97,1.25,0.87,61.3,15079,246,32.221279,-110.874647,BJ's,BJ's Restaurant & Brewhouse,United States,Arizona,AZ,Pima County,Tucson,East Broadway Boulevard
102,0.77,6.21,3.07,3.4,3.14,3.28,3.56,2.96,3.42,3.56,,3.26,1.44,0.69,8.32,30.62,3093,101,41.4187990128994,-81.908348724246,BJ's,BJ's Restaurant & Brewhouse,United States,Ohio,OH,Cuyahoga County,North Olmsted,Brookpark Road
103,1.41,1.64,3.5,3.45,3.51,3.46,3.57,3.39,3.67,3.64,3.33,3.49,1.14,0.71,2.63,88.34,12368,140,39.2890941362242,-84.4650452711639,BJ's,BJ's Restaurant & Brewhouse,United States,Ohio,OH,Hamilton County,Springdale,
104,0.86,1.04,3.53,3.47,3.49,3.51,3.56,3.45,3.47,3.53,3.0,3.51,1.53,0.98,0.93,110.96,31180,281,28.4885691833143,-81.4283998014285,BJ's,BJ's Restaurant & Brewhouse,United States,Florida,FL,Orange County,Orlando,Conroy Road
105,0.9,2.52,3.15,3.07,3.03,3.13,3.33,2.88,3.33,3.44,,3.1,0.96,2.58,2.87,32.41,3760,116,40.5653605,-75.5677052,BJ's,BJ's Restaurant & Brewhouse,United States,Pennsylvania,PA,Lehigh County,Allentown,Reppert Lane
106,1.0,3.32,3.42,3.68,3.32,3.62,3.68,3.42,3.6,3.78,3.0,3.55,1.58,0.57,10.78,71.01,11362,160,39.634045,-86.12158,BJ's,BJ's Restaurant & Brewhouse,United States,Indiana,IN,Johnson County,Greenwood,Greenwood Park Drive North
107,0.77,2.28,3.11,2.83,2.8,3.01,3.05,2.84,3.06,3.21,2.93,2.94,0.77,1.27,1.62,87.44,52553,601,47.4578046471524,-122.257380365051,BJ's,BJ's Restaurant & Brewhouse,United States,Washington,WA,King County,Seattle,
108,0.88,21.73,3.56,3.44,3.55,3.49,3.68,3.35,3.55,3.56,2.83,3.51,1.39,0.74,20.34,86.76,21690,250,27.838655,-82.686277,BJ's,BJ's Restaurant & Brewhouse,United States,Florida,FL,Pinellas County,Pinellas Park,Park Boulevard North
109,0.83,0.86,2.45,2.37,2.35,2.47,2.52,2.29,2.55,2.69,2.29,2.39,2.64,1.3,1.44,106.4,80649,758,37.340382,-121.904107,BJ's,BJ's Restaurant & Brewhouse,United States,California,CA,Santa Clara County,San Jose,Autumn Parkway
110,0.96,1.81,2.98,3.11,2.94,3.1,3.36,2.73,3.16,3.28,2.5,3.03,1.88,1.86,2.68,46.27,4164,90,36.0723737,-80.3003323,BJ's,BJ's Restaurant & Brewhouse,United States,North Carolina,NC,Forsyth County,Winston-Salem,Hanes Mall Circle
111,0.79,2.66,3.29,3.24,3.29,3.25,3.38,3.13,3.3,3.31,4.5,3.25,1.27,0.56,2.95,111.09,25217,227,32.679071,-97.110775,BJ's,BJ's Restaurant & Brewhouse,United States,Texas,TX,Tarrant County,Arlington,Interstate 20 Frontage Road
112,0.79,0.52,2.97,2.99,3.03,2.88,3.1,2.85,3.11,3.19,2.0,2.99,1.63,1.06,0.7,52.97,19599,370,35.3498827588761,-119.122001469983,BJ's,BJ's Restaurant & Brewhouse,United States,California,CA,Kern County,Bakersfield,Stockdale Highway
113,0.91,3.64,2.85,2.94,2.73,2.94,3.18,2.58,3.14,3.3,2.75,2.91,1.85,0.86,2.35,78.28,11977,153,28.448921,-81.470952,BJ's,BJ's Restaurant & Brewhouse,United States,Florida,FL,Orange County,Orlando,International Drive
114,0.93,3.75,2.98,3.25,2.79,3.21,3.2,3.04,3.3,3.83,3.67,3.08,1.21,0.74,5.73,37.58,4284,114,38.993074,-84.650311,BJ's,BJ's Restaurant & Brewhouse,United States,Kentucky,KY,Boone County,Florence,Mall Circle Road
115,1.24,2.45,3.1,3.18,3.09,3.15,3.39,2.87,3.39,3.5,4.0,3.12,1.04,1.23,3.19,64.87,4930,76,35.216547,-97.487532,BJ's,BJ's Restaurant & Brewhouse,United States,Oklahoma,OK,Cleveland County,Norman,Ed Noble Parkway
116,1.02,2.96,3.09,3.53,3.26,3.32,3.47,3.11,3.45,3.75,,3.31,1.3,1.4,8.95,45.74,4894,107,29.72967,-98.07594,BJ's,BJ's Restaurant & Brewhouse,United States,Texas,TX,Comal County,New Braunfels,Cold Spring Drive
117,0.85,0.77,3.44,3.73,3.63,3.55,3.64,3.59,3.62,3.71,2.0,3.6,1.25,0.8,1.1,63.79,10716,168,29.607736,-98.601247,BJ's,BJ's Restaurant & Brewhouse,United States,Texas,TX,Bexar County,San Antonio,Interstate 10
118,1.12,7.76,3.28,3.39,3.17,3.36,3.51,3.17,3.47,3.44,2.88,3.34,1.72,1.97,15.73,95.47,24249,254,33.000238,-96.962032,BJ's,BJ's Restaurant & Brewhouse,United States,Texas,TX,Denton County,Lewisville,Stemmons Freeway
119,0.88,3.5,2.86,2.75,2.9,2.78,2.88,2.73,2.98,3.01,3.25,2.78,1.02,1.47,5.52,52.71,27777,527,33.681649,-117.17512,BJ's,BJ's Restaurant & Brewhouse,United States,California,CA,Riverside County,Menifee,Haun Road
120,0.73,0.58,3.53,3.51,3.53,3.5,3.62,3.37,3.71,3.86,2.0,3.53,0.67,1.33,0.21,38.28,2718,71,41.1176738671805,-85.1416930300793,BJ's,BJ's Restaurant & Brewhouse,United States,Indiana,IN,Allen County,Fort Wayne,Coliseum Boulevard West
121,0.95,0.48,3.56,3.37,3.4,3.59,3.66,3.25,3.42,3.38,2.5,3.48,1.47,1.04,0.43,53.99,11499,213,29.490112,-98.707801,BJ's,BJ's Restaurant & Brewhouse,United States,Texas,TX,Bexar County,San Antonio,West Loop 1604 North
122,1.12,0.77,3.38,3.58,3.36,3.62,3.65,3.28,3.66,3.9,3.67,3.48,1.41,0.64,0.87,103.16,28886,280,39.40579,-119.748711,BJ's,BJ's Restaurant & Brewhouse,United States,Nevada,NV,Washoe County,Reno,Summit Sierra Boulevard
123,1.19,6.1,3.31,3.5,3.41,3.4,3.4,3.4,3.38,3.47,3.5,3.39,0.76,1.14,16.47,58.49,12048,206,40.0759488,-83.1324018,BJ's,BJ's Restaurant & Brewhouse,United States,Ohio,OH,Franklin County,Dublin,Tuttle Crossing Boulevard
124,0.92,3.8,3.13,3.06,3.18,3.07,3.26,2.94,3.25,3.3,2.85,3.1,1.71,1.12,11.05,113.75,68248,600,38.361982,-121.965964,BJ's,BJ's Restaurant & Brewhouse,United States,California,CA,Solano County,Vacaville,Nut Tree Parkway
125,0.74,2.21,3.04,3.18,3.02,3.17,3.36,2.9,3.4,3.56,3.25,3.12,1.02,0.71,5.44,49.14,13414,273,34.463610921795,-117.352465222169,BJ's,BJ's Restaurant & Brewhouse,United States,California,CA,San Bernardino County,Victorville,Amargosa Road
126,1.5,1.5,3.02,3.41,2.97,3.31,3.14,3.21,2.91,3.06,3.5,3.18,1.73,2.05,2.81,61.99,9918,160,29.659147,-82.413002,BJ's,BJ's Restaurant & Brewhouse,United States,Florida,FL,Alachua County,Gainesville,West Newberry Road
127,1.27,13.17,3.63,3.41,4.17,3.49,3.58,3.49,3.72,3.58,2.5,3.54,1.7,1.08,20.37,182.38,31004,170,33.601561,-117.899597,BJ's,BJ's Restaurant & Brewhouse,United States,California,CA,Orange County,Newport Beach,Main Street
128,0.95,1.4,2.88,2.98,2.95,2.92,3.11,2.74,3.12,3.21,2.83,2.94,1.65,0.83,1.94,199.88,89548,448,34.062937,-118.447187,BJ's,BJ's Restaurant & Brewhouse,United States,California,CA,Los Angeles County,Los Angeles,Broxton Avenue
129,0.82,7.06,2.95,2.8,3.02,2.85,3.07,2.67,3.19,3.15,3.17,2.86,2.04,1.2,7.66,203.74,101870,500,33.994257,-117.919203,BJ's,BJ's Restaurant & Brewhouse,United States,California,CA,Los Angeles County,City of Industry,Castleton Street
130,0.95,1.13,2.93,3.49,3.3,3.15,3.58,2.89,3.3,3.3,2.5,3.21,1.36,1.51,0.52,60.7,6980,115,40.3462956,-80.0562372,BJ's,BJ's Restaurant & Brewhouse,United States,Pennsylvania,PA,Allegheny County,Pittsburgh,Washington Road
131,0.76,1.11,2.78,3.26,3.06,3.05,3.33,2.75,3.03,3.25,1.0,3.08,0.69,2.65,4.12,23.81,1762,74,38.3076304456496,-77.5108690559864,BJ's,BJ's Restaurant & Brewhouse,United States,Virginia,VA,,Fredericksburg,Carl D. Silver Parkway
132,0.78,8.94,2.73,2.86,2.73,2.81,2.96,2.63,2.85,2.95,2.12,2.82,1.72,0.98,11.1,113.29,92329,815,33.78074,-117.889428,BJ's,BJ's Restaurant & Brewhouse,United States,California,CA,Orange County,Orange,West Metropolitan Drive
133,1.04,4.46,3.29,3.23,3.18,3.28,3.39,3.17,3.39,3.72,4.0,3.25,1.23,0.71,3.66,40.2,6150,153,28.6558134464098,-81.2369816261302,BJ's,BJ's Restaurant & Brewhouse,United States,Florida,FL,Seminole County,Oviedo,Red Bug Lake Road
134,1.17,2.36,3.24,2.86,3.05,3.07,3.37,2.76,3.35,3.5,2.83,3.08,3.13,0.33,7.09,61.04,8606,141,34.7152079802768,-86.6740322967067,BJ's,BJ's Restaurant & Brewhouse,United States,Alabama,AL,Madison County,Huntsville,Bridge Street Walking Trail
135,0.65,2.69,2.82,2.85,2.91,2.81,3.01,2.67,3.08,3.13,2.71,2.83,2.5,0.97,4.67,102.85,58417,568,32.6304731313915,-117.087170183659,BJ's,BJ's Restaurant & Brewhouse,United States,California,CA,San Diego County,Chula Vista,
136,0.67,0.75,2.62,3.02,2.75,3.0,3.15,2.61,3.1,3.54,,2.86,2.71,0.64,0.29,56.57,5940,105,37.9909372844128,-84.5244594816219,BJ's,BJ's Restaurant & Brewhouse,United States,Kentucky,KY,Fayette County,Lexington,Nicholasville Road
137,0.98,1.28,3.38,3.34,3.46,3.29,3.5,3.2,3.36,3.67,4.0,3.35,1.29,0.86,1.27,38.68,4061,105,28.0790749,-80.6492706,BJ's,BJ's Restaurant & Brewhouse,United States,Florida,FL,Brevard County,Melbourne,West New Haven Avenue
138,0.92,16.88,3.03,3.14,3.2,3.08,3.35,2.81,3.4,3.48,2.81,3.09,1.19,0.82,25.21,139.38,99656,715,33.9132,-117.88936,BJ's,BJ's Restaurant & Brewhouse,United States,California,CA,Orange County,Brea,Brea Mall
139,1.19,0.67,3.57,3.37,3.39,3.62,3.62,3.33,3.66,3.83,3.0,3.48,1.51,1.62,0.78,64.75,10360,160,32.284311,-110.97769,BJ's,BJ's Restaurant & Brewhouse,United States,Arizona,AZ,Pima County,Tucson,North Oracle Road
140,1.01,2.07,3.16,2.99,2.95,3.14,3.19,2.96,3.1,3.27,3.67,3.05,0.94,0.86,1.92,67.96,11485,169,32.910155,-97.316124,BJ's,BJ's Restaurant & Brewhouse,United States,Texas,TX,Tarrant County,Fort Worth,North Freeway Service Road East
141,1.07,0.36,3.13,3.15,3.11,3.22,3.28,3.01,3.25,3.35,2.75,3.15,0.77,1.49,0.24,77.48,26421,341,30.231834,-97.816851,BJ's,BJ's Restaurant & Brewhouse,United States,Texas,TX,Travis County,Sunset Valley,East US Highway 290 Service Road
142,0.79,1.16,2.98,2.98,3.02,2.95,3.12,2.84,3.17,3.29,2.86,2.99,1.85,0.85,1.29,115.28,74126,643,38.640247,-121.501865,BJ's,BJ's Restaurant & Brewhouse,United States,California,CA,Sacramento County,Sacramento,Gateway Park Boulevard
143,1.04,4.1,3.19,3.32,3.75,3.13,3.27,3.28,3.43,3.48,2.5,3.25,0.53,1.03,3.32,24.1,2458,102,40.8750561024685,-81.4327576973904,BJ's,BJ's Restaurant & Brewhouse,United States,Ohio,OH,Stark County,North Canton,Strip Avenue Northwest
144,0.63,1.84,2.87,2.99,3.1,2.86,3.13,2.72,3.25,3.35,,2.94,1.17,1.41,1.87,41.05,9441,230,37.100693,-76.4910166,BJ's,BJ's Restaurant & Brewhouse,United States,Virginia,VA,,Newport News,Jefferson Avenue
145,0.74,3.27,3.55,3.5,3.04,3.67,3.71,3.32,3.61,3.75,3.0,3.52,1.69,0.47,5.85,100.32,20565,205,45.610679,-122.680467,BJ's,BJ's Restaurant & Brewhouse,United States,Oregon,OR,Multnomah County,Portland,North Center Avenue
146,0.82,1.79,2.82,2.94,2.83,2.91,3.05,2.74,3.04,3.03,2.5,2.89,1.69,1.9,4.22,93.53,37881,405,33.824603,-117.517218,BJ's,BJ's Restaurant & Brewhouse,United States,California,CA,Riverside County,Corona,Tuscany Street
147,0.88,21.2,2.64,2.59,2.76,2.6,2.81,2.4,2.82,2.89,2.21,2.62,1.32,0.94,25.04,130.46,118722,910,33.985454,-118.395362,BJ's,BJ's Restaurant & Brewhouse,United States,California,CA,Los Angeles County,Culver City,Sepulveda Boulevard
148,0.84,5.27,2.91,3.22,2.87,3.11,3.21,2.94,3.38,3.73,3.75,3.05,0.86,0.93,4.46,56.04,5268,94,32.9407251,-97.1179901,BJ's,BJ's Restaurant & Brewhouse,United States,Texas,TX,Tarrant County,Southlake,East Southlake Boulevard
149,0.95,10.42,2.97,2.72,2.86,2.84,3.07,2.58,2.93,3.12,2.77,2.83,1.08,1.8,5.77,122.51,60153,491,34.162679,-118.824899,BJ's,BJ's Restaurant & Brewhouse,United States,California,CA,Ventura County,Thousand Oaks,Thousand Oaks Boulevard
150,0.85,0.68,3.13,3.08,3.1,3.1,3.27,2.95,3.36,3.41,3.11,3.11,2.43,0.72,0.37,146.43,97083,663,32.772012,-117.157354,BJ's,BJ's Restaurant & Brewhouse,United States,California,CA,San Diego County,San Diego,Friars Road
151,0.73,1.21,2.81,2.85,2.84,2.84,3.0,2.66,3.04,3.17,3.08,2.84,1.57,1.38,2.65,94.51,51036,540,38.00217,-121.317321,BJ's,BJ's Restaurant & Brewhouse,United States,California,CA,San Joaquin County,Stockton,Pacific Avenue
152,0.9,3.2,2.79,2.86,2.92,2.8,3.06,2.59,2.97,3.06,2.82,2.84,1.78,0.76,3.55,97.64,44719,458,34.236496,-119.180214,BJ's,BJ's Restaurant & Brewhouse,United States,California,CA,Ventura County,Oxnard,West Esplanade Drive
153,1.0,1.87,2.89,2.71,2.77,2.82,3.15,2.43,3.1,3.34,2.0,2.83,2.15,1.0,2.47,50.88,14449,284,30.561081,-97.691746,BJ's,BJ's Restaurant & Brewhouse,United States,Texas,TX,Williamson County,Round Rock,North Interstate 35 Frontage Road
154,1.0,1.09,3.33,3.49,3.31,3.5,3.54,3.27,3.58,3.67,,3.41,1.19,1.38,2.32,42.62,6223,146,27.712592,-97.380111,BJ's,BJ's Restaurant & Brewhouse,United States,Texas,TX,Nueces County,Corpus Christi,Texas 358
155,0.74,1.63,3.07,3.1,2.91,3.2,3.17,3.01,3.34,3.42,2.17,3.1,1.01,0.61,2.6,50.64,17724,350,47.2149212528395,-122.46754446777,BJ's,BJ's Restaurant & Brewhouse,United States,Washington,WA,Pierce County,Tacoma,South Steele Street
156,0.86,2.0,2.72,2.71,2.85,2.65,2.84,2.63,3.26,3.75,,2.72,1.54,1.43,6.17,49.82,1943,39,38.9440851298503,-76.7333977434364,BJ's,BJ's Restaurant & Brewhouse,United States,Maryland,MD,Prince George's County,Bowie,Emerald Way
157,0.79,4.09,3.0,3.05,2.85,3.07,3.24,2.8,3.35,3.49,,3.03,1.4,1.05,8.55,40.75,6846,168,37.657679,-77.629277,BJ's,BJ's Restaurant & Brewhouse,United States,Virginia,VA,Henrico County,Henrico,West Broad Street
158,0.75,2.16,2.93,3.09,3.04,3.01,3.37,2.68,3.41,3.62,2.5,3.02,2.31,0.95,3.5,41.47,5889,142,35.7556705,-78.7435144,BJ's,BJ's Restaurant & Brewhouse,United States,North Carolina,NC,Wake County,Cary,Dillard Drive
159,0.89,2.02,3.63,3.66,3.55,3.69,3.55,3.74,3.71,3.81,3.33,3.66,1.2,0.98,1.66,58.88,14248,242,40.142261,-82.979426,BJ's,BJ's Restaurant & Brewhouse,United States,Ohio,OH,Delaware County,Columbus,Polaris Parkway
160,0.8,0.9,3.72,3.52,3.66,3.55,3.71,3.52,3.73,3.83,3.5,3.6,2.09,1.97,0.63,135.33,22871,169,32.868039,-117.232993,BJ's,BJ's Restaurant & Brewhouse,United States,California,CA,San Diego County,San Diego,Villa La Jolla Drive
161,0.92,0.81,3.49,3.42,3.41,3.51,3.56,3.34,3.55,3.66,3.64,3.44,1.12,1.11,0.85,83.28,25650,308,29.9624099745897,-95.5445657258312,BJ's,BJ's Restaurant & Brewhouse,United States,Texas,TX,Harris County,Houston,Farm to Market 1960 Road West
162,0.78,9.38,3.1,3.09,3.02,3.1,3.26,2.94,3.34,3.31,3.0,3.11,1.72,1.26,5.19,177.75,92253,519,34.139711,-118.022457,BJ's,BJ's Restaurant & Brewhouse,United States,California,CA,Los Angeles County,Arcadia,Huntington Drive
163,0.93,1.36,2.66,2.69,2.55,2.77,2.81,2.54,2.85,3.08,2.33,2.69,1.54,0.96,1.3,56.78,13514,238,29.786136,-95.728864,BJ's,BJ's Restaurant & Brewhouse,United States,Texas,TX,Harris County,Katy,Interstate 10 Frontage Road
164,0.72,15.09,3.43,3.55,3.55,3.5,3.39,3.61,3.58,3.48,3.12,3.5,1.88,1.0,9.68,82.59,14618,177,40.860419,-74.060935,BJ's,BJ's Restaurant & Brewhouse,United States,New Jersey,NJ,Bergen County,Teterboro,Industrial Avenue
165,0.88,3.81,3.01,2.89,3.19,2.88,3.13,2.74,3.12,3.39,2.38,2.95,2.08,0.82,3.73,82.6,53193,644,38.7680018664768,-121.265175210758,BJ's,BJ's Restaurant & Brewhouse,United States,California,CA,Placer County,Roseville,Roseville Parkway
166,0.66,3.94,3.24,3.25,3.32,3.23,3.36,3.14,3.3,3.44,3.25,3.25,1.24,1.04,8.01,80.02,26888,336,39.0929509386567,-76.8563070354497,BJ's,BJ's Restaurant & Brewhouse,United States,Maryland,MD,Prince George's County,Laurel,Baltimore Avenue
167,1.12,0.76,3.12,3.22,3.23,3.08,3.33,3.02,3.34,3.47,2.5,3.17,0.94,1.52,0.82,34.9,7993,229,38.90466,-104.81805,BJ's,BJ's Restaurant & Brewhouse,United States,Colorado,CO,El Paso County,Colorado Springs,North Nevada Avenue
168,0.79,6.5,2.98,2.79,2.48,2.93,2.99,2.76,3.1,3.19,2.82,2.88,2.56,0.83,10.4,120.47,88544,735,34.072474,-117.883555,BJ's,BJ's Restaurant & Brewhouse,United States,California,CA,Los Angeles County,West Covina,Christopher Columbus Transcontinental Highway
169,0.89,2.93,3.05,2.86,3.0,2.93,3.08,2.81,3.19,3.32,3.81,2.94,1.06,0.8,6.82,125.8,55857,444,33.6579459141747,-118.000755258039,BJ's,BJ's Restaurant & Brewhouse,United States,California,CA,Orange County,Huntington Beach,Walnut Avenue
170,1.14,0.59,3.79,4.0,3.9,3.87,3.87,3.9,4.1,4.0,,3.89,2.21,3.14,0.22,61.66,3823,62,30.6746022381441,-88.1380865311506,BJ's,BJ's Restaurant & Brewhouse,United States,Alabama,AL,Mobile County,Mobile,Airport Boulevard
171,0.99,1.76,3.01,3.19,3.06,3.12,3.28,2.9,3.33,3.36,2.8,3.11,0.83,1.46,1.46,117.99,40117,340,32.954507,-96.82809,BJ's,BJ's Restaurant & Brewhouse,United States,Texas,TX,Dallas County,Dallas,Belt Line Road
172,1.02,4.37,2.79,3.35,2.76,3.14,3.25,2.84,3.2,3.3,2.75,3.06,1.09,0.64,8.17,94.66,20826,220,33.127312,-96.660208,BJ's,BJ's Restaurant & Brewhouse,United States,Texas,TX,Collin County,Allen,U.S. 75
173,0.8,0.46,2.84,2.81,2.82,2.83,3.1,2.54,2.94,3.26,4.0,2.8,1.61,1.66,0.54,94.19,25808,274,25.643767,-80.337119,BJ's,BJ's Restaurant & Brewhouse,United States,Florida,FL,Miami-Dade County,Miami,
174,0.83,3.05,3.0,3.11,3.07,3.06,3.18,2.94,3.25,3.36,2.9,3.08,1.1,0.97,10.16,87.09,39190,450,33.939445,-117.2625,BJ's,BJ's Restaurant & Brewhouse,United States,California,CA,Riverside County,Moreno Valley,Centerpoint Drive
175,1.09,0.86,2.95,3.06,2.94,3.08,3.12,2.89,3.17,3.39,3.0,3.0,2.25,1.31,0.59,130.56,30291,232,30.252114,-81.535506,BJ's,BJ's Restaurant & Brewhouse,United States,Florida,FL,Duval County,Jacksonville,Gate Parkway
176,1.1,0.93,2.86,2.89,2.78,2.98,2.95,2.76,3.02,3.19,2.0,2.88,1.17,1.42,0.94,35.39,7290,206,40.5701377005314,-80.0228508836059,BJ's,BJ's Restaurant & Brewhouse,United States,Pennsylvania,PA,Allegheny County,Pittsburgh,McKnight Road
177,0.82,4.35,3.21,3.1,2.96,3.19,3.26,3.03,3.32,3.41,2.85,3.16,0.75,1.04,5.55,97.34,40590,417,38.656171,-121.124246,BJ's,BJ's Restaurant & Brewhouse,United States,California,CA,Sacramento County,Folsom,East Bidwell Street
178,0.66,1.44,2.85,3.11,3.03,2.99,3.16,2.87,3.22,3.43,,3.01,1.81,2.94,1.4,78.5,12089,154,30.38692,-91.085883,BJ's,BJ's Restaurant & Brewhouse,United States,Louisiana,LA,East Baton Rouge Parish,Baton Rouge,Mall of Louisiana Boulevard
179,0.87,1.24,2.6,2.74,2.67,2.68,2.87,2.48,3.03,2.97,2.0,2.68,1.65,1.45,1.37,230.26,81050,352,34.05832,-118.41784,BJ's,BJ's Restaurant & Brewhouse,United States,California,CA,Los Angeles County,Los Angeles,Constellation Boulevard
180,1.17,2.19,3.27,3.0,3.22,3.11,3.23,3.04,3.23,3.24,,3.15,5.15,0.44,0.95,76.45,8792,115,30.6269486824257,-96.3022019250017,BJ's,BJ's Restaurant & Brewhouse,United States,Texas,TX,Brazos County,College Station,Harvey Road
181,0.74,3.65,2.9,2.99,3.02,2.93,3.22,2.68,3.28,3.27,3.0,2.95,2.07,1.19,4.14,153.93,138077,897,33.832377,-118.347349,BJ's,BJ's Restaurant & Brewhouse,United States,California,CA,Los Angeles County,Torrance,West Carson Street
182,0.6,6.81,2.83,3.11,2.58,3.07,3.27,2.73,3.31,3.43,3.5,2.99,1.74,1.21,10.03,52.16,10589,203,40.662039,-73.719121,BJ's,BJ's Restaurant & Brewhouse,United States,New York,NY,Nassau County,Valley Stream,
183,1.0,5.4,2.74,2.73,2.62,2.76,2.98,2.47,3.03,3.14,2.84,2.73,1.38,1.8,3.79,126.5,110052,870,34.178953,-118.309509,BJ's,BJ's Restaurant & Brewhouse,United States,California,CA,Los Angeles County,Burbank,South First Street
184,0.97,2.62,3.57,3.56,3.41,3.63,3.67,3.47,3.71,3.67,4.17,3.55,0.79,0.97,3.76,96.7,30848,319,33.299271,-111.898257,BJ's,BJ's Restaurant & Brewhouse,United States,Arizona,AZ,Maricopa County,Chandler,West Chandler Boulevard
185,1.11,2.17,3.28,3.09,3.2,3.18,3.28,3.09,3.3,3.3,3.1,3.17,0.8,0.99,5.22,119.34,26136,219,33.017399,-96.709573,BJ's,BJ's Restaurant & Brewhouse,United States,Texas,TX,Collin County,Plano,North Central Expressway
186,1.02,2.25,3.67,3.42,4.04,3.33,3.98,3.11,3.73,3.71,,3.55,1.46,1.42,5.18,64.69,5887,91,32.302685,-95.303228,BJ's,BJ's Restaurant & Brewhouse,United States,Texas,TX,Smith County,Tyler,West Southwest Loop 323
187,0.88,1.86,2.98,3.05,3.07,2.99,3.12,2.91,3.17,3.28,3.17,3.0,2.41,1.5,3.05,124.95,108455,868,38.422936,-121.399347,BJ's,BJ's Restaurant & Brewhouse,United States,California,CA,Sacramento County,Elk Grove,Laguna Boulevard
188,0.88,1.72,2.85,2.74,2.84,2.76,2.97,2.61,2.97,3.05,2.67,2.79,1.48,0.84,3.42,191.0,30178,158,33.7594413757324,-118.133651733398,BJ's,BJ's Restaurant & Brewhouse,United States,California,CA,Los Angeles County,Long Beach,East 2nd Street
189,1.65,8.64,3.03,2.88,3.55,2.91,2.85,3.09,3.17,3.16,,2.97,1.88,1.19,12.44,35.62,3776,106,34.7908236404466,-92.2259444413992,BJ's,BJ's Restaurant & Brewhouse,United States,Arkansas,AR,Pulaski County,North Little Rock,Warden Road
190,1.11,3.44,2.24,1.89,1.78,2.16,2.47,1.56,2.35,2.91,,2.08,0.69,0.25,15.24,49.52,1981,40,40.80294,-72.867105,Applebee's ,Applebee's Neighborhood Grill & Bar,United States,New York,NY,Suffolk County,Shirley,McGraw Street
191,0.91,9.5,3.1,2.0,3.5,2.42,2.78,2.2,2.3,2.67,,2.52,1.03,0.17,0.88,44.24,929,21,32.368876,-88.672472,Applebee's ,Applebee's Neighborhood Grill & Bar,United States,Mississippi,MS,Lauderdale County,Meridian,Highway 11 And 80
192,2.75,9.0,2.55,3.5,2.33,2.85,2.87,2.73,2.6,2.2,,2.8,0.65,1.77,26.08,35.2,1056,30,38.90038,-99.31863,Applebee's ,Applebee's Neighborhood Grill & Bar,United States,Kansas,KS,Ellis County,Hays,Mopar Drive
193,0.73,2.17,3.25,2.09,3.33,2.23,2.56,2.33,2.67,2.67,,2.58,0.56,0.68,1.25,31.79,604,19,43.0532281,-76.0736524,Applebee's ,Applebee's Neighborhood Grill & Bar,United States,New York,NY,Onondaga County,Syracuse,Erie Boulevard East
194,1.81,2.0,1.93,1.69,1.8,1.87,2.27,1.36,2.14,1.93,1.0,1.86,1.1,0.8,9.67,83.24,3746,45,30.0044725,-90.1647764,Applebee's ,Applebee's Neighborhood Grill & Bar,United States,Louisiana,LA,Jefferson Parish,Metairie,Veterans Memorial Boulevard
195,0.88,6.0,2.7,2.58,2.0,2.74,2.79,2.54,3.0,2.85,,2.63,1.61,1.67,27.58,151.06,7402,49,40.868168618849,-74.1001558653459,Applebee's ,Applebee's Neighborhood Grill & Bar,United States,New Jersey,NJ,Bergen County,Garfield,Passaic Street
196,1.1,4.73,2.42,2.5,2.82,2.38,2.5,2.45,2.43,2.67,,2.46,0.94,1.18,4.5,57.32,3611,63,40.9665703,-74.07542,Applebee's ,Applebee's Neighborhood Grill & Bar,United States,New Jersey,NJ,Bergen County,Paramus,East Ridgewood Avenue
197,0.56,0.4,3.2,2.78,2.8,3.25,3.67,,2.86,2.8,,2.93,0.19,2.3,0.15,10.29,144,14,45.0331233,-93.382512,Applebee's ,Applebee's Neighborhood Grill & Bar,United States,Minnesota,MN,Hennepin County,Minneapolis,Winnetka Avenue North
198,0.8,1.54,2.38,2.59,2.43,2.54,2.25,2.75,2.52,2.44,1.33,2.5,0.77,1.29,2.25,47.32,6483,137,37.797065550034,-121.19669675477,Applebee's ,Applebee's Neighborhood Grill & Bar,United States,California,CA,San Joaquin County,Manteca,East Yosemite Avenue
199,1.14,2.0,2.75,2.64,3.0,2.55,2.86,2.5,2.87,3.44,,2.7,2.13,0.62,11.69,60.47,1814,30,44.860608,-93.307167,Applebee's ,Applebee's Neighborhood Grill & Bar,United States,Minnesota,MN,Hennepin County,Bloomington,Penn Avenue South
200,0.65,0.94,1.85,1.9,2.06,1.69,2.0,1.81,2.38,2.89,,1.88,4.0,2.58,1.24,45.39,1498,33,35.1348037719727,-89.9912643432617,Applebee's ,Applebee's Neighborhood Grill & Bar,United States,Tennessee,TN,Shelby County,Memphis,Monroe Avenue
201,1.33,6.0,2.0,2.47,1.0,2.4,2.24,2.25,2.18,2.0,1.0,2.24,0.38,1.3,11.72,17.91,627,35,40.55738,-112.298838,Applebee's ,Applebee's Neighborhood Grill & Bar,United States,Utah,UT,Tooele County,Tooele,West 1280 North
202,2.71,7.67,3.53,3.43,4.0,3.43,3.0,4.0,3.08,3.5,,3.5,1.99,4.05,42.89,111.42,2897,26,40.8858,-74.709171,Applebee's ,Applebee's Neighborhood Grill & Bar,United States,New Jersey,NJ,Morris County,Mount Olive Township,International Drive South
203,0.85,5.27,2.14,2.29,2.12,2.24,2.19,2.23,2.3,2.35,1.75,2.23,1.06,0.89,15.16,116.8,30017,257,37.0213837,-121.5617582,Applebee's ,Applebee's Neighborhood Grill & Bar,United States,California,CA,Santa Clara County,Gilroy,Arroyo Circle
204,1.5,4.0,2.92,3.0,3.5,2.81,3.2,2.7,3.0,2.86,,2.95,0.59,0.15,83.75,101.7,2034,20,42.482106,-76.485303,Applebee's ,Applebee's Neighborhood Grill & Bar,United States,New York,NY,Tompkins County,Ithaca,North Triphammer Road
205,0.8,5.0,3.38,2.0,3.0,2.53,2.44,2.78,3.22,3.2,,2.61,0.66,2.55,4.71,42.17,759,18,33.56063,-85.07399,Applebee's ,Applebee's Neighborhood Grill & Bar,United States,Georgia,GA,Carroll County,Carrollton,South Park Street
206,1.83,1.12,3.36,1.33,3.12,2.22,2.62,2.5,3.75,3.5,,2.65,0.53,1.61,6.22,31.41,534,17,39.6475322,-84.1097459,Applebee's ,Applebee's Neighborhood Grill & Bar,United States,Ohio,OH,Greene County,Dayton,Wilmington Pike
207,0.81,3.83,3.08,2.56,3.0,2.74,2.93,2.5,2.85,2.7,,2.79,1.38,0.9,8.73,49.34,1431,29,42.1975587,-71.7798097,Applebee's ,Applebee's Neighborhood Grill & Bar,United States,Massachusetts,MA,Worcester County,Millbury,Worcester-Providence Turnpike
208,0.85,3.21,2.69,2.44,2.42,2.59,2.33,2.79,2.76,3.07,5.0,2.54,1.25,2.22,7.04,64.88,9018,139,33.685483,-117.17746,Applebee's ,Applebee's Neighborhood Grill & Bar,United States,California,CA,Riverside County,Menifee,Newport Road
209,1.38,2.17,2.73,2.62,2.67,2.69,3.43,2.33,3.22,3.5,,2.68,0.69,0.88,3.18,21.11,401,19,34.2848347,-83.8441383,Applebee's ,Applebee's Neighborhood Grill & Bar,United States,Georgia,GA,Hall County,Gainesville,Browns Bridge Road
210,1.11,2.17,3.0,3.33,2.17,3.62,4.25,2.0,3.56,4.0,,3.16,1.72,2.17,34.93,51.05,970,19,42.22035,-85.58832,Applebee's ,Applebee's Neighborhood Grill & Bar,United States,Michigan,MI,Kalamazoo County,Portage,South Westnedge Avenue
211,0.92,1.27,2.94,2.85,2.8,2.96,2.79,2.94,3.08,3.11,,2.89,0.55,1.22,2.86,43.19,4319,100,33.74698,-116.99831,Applebee's ,Applebee's Neighborhood Grill & Bar,United States,California,CA,Riverside County,Hemet,West Florida Avenue
212,1.36,2.71,3.07,1.73,2.57,2.47,2.31,2.69,2.15,3.0,,2.5,0.23,1.12,4.86,23.23,604,26,40.198014,-75.525492,Applebee's ,Applebee's Neighborhood Grill & Bar,United States,Pennsylvania,PA,Montgomery County,Royersford,Buckwalter Road
213,1.03,5.1,2.16,2.33,2.6,2.18,2.33,2.14,2.43,2.33,,2.25,1.12,0.51,1.47,132.05,8055,61,38.902985,-76.834065,Applebee's ,Applebee's Neighborhood Grill & Bar,United States,Maryland,MD,Prince George's County,Upper Marlboro,Largo Center Drive
214,0.86,1.05,1.47,1.5,1.35,1.62,1.37,1.56,1.6,1.75,,1.49,0.67,1.07,0.68,11.41,468,41,33.7264219,-84.7575279,Applebee's ,Applebee's Neighborhood Grill & Bar,United States,Georgia,GA,Douglas County,Douglasville,Douglas Boulevard
215,0.43,4.0,2.0,3.86,3.5,3.25,3.8,2.8,3.4,3.67,,3.3,0.7,91.93,0.16,86.2,862,10,40.83857,-74.82116,Applebee's ,Applebee's Neighborhood Grill & Bar,United States,New Jersey,NJ,Warren County,Hackettstown,New Jersey 57
216,0.94,1.4,2.59,2.44,2.64,2.41,2.78,2.23,3.12,3.31,3.0,2.52,0.26,1.21,2.61,62.48,7497,120,38.2821469,-122.2748586,Applebee's ,Applebee's Neighborhood Grill & Bar,United States,California,CA,Napa County,Napa,Soscol Avenue
217,0.64,2.6,1.86,2.18,2.0,2.08,1.71,2.71,1.56,2.6,,2.06,0.94,0.49,4.67,29.94,539,18,35.73121,-77.95155,Applebee's ,Applebee's Neighborhood Grill & Bar,United States,North Carolina,NC,Wilson County,Wilson,Forest Hills Road West
218,0.78,3.0,2.29,2.89,2.25,2.75,3.38,1.88,2.38,3.6,,2.62,0.34,0.69,0.91,29.56,473,16,35.5612469,-82.6346485,Applebee's ,Applebee's Neighborhood Grill & Bar,United States,North Carolina,NC,Buncombe County,Asheville,Smokey Park Highway
219,0.81,2.62,2.69,3.62,3.38,3.14,3.29,3.14,3.14,3.67,,3.21,2.14,0.88,5.54,90.48,2624,29,40.700981,-73.382005,Applebee's ,Applebee's Neighborhood Grill & Bar,United States,New York,NY,Suffolk County,Lindenhurst,North Wellwood Avenue
220,0.54,0.33,1.57,1.92,1.8,1.8,2.1,1.5,2.2,2.6,,1.8,1.18,5.09,0.47,44.4,888,20,46.834136,-114.04848,Applebee's ,Applebee's Neighborhood Grill & Bar,United States,Montana,MT,Missoula County,Missoula,Brooks Street
221,0.84,1.18,2.61,2.58,2.33,2.81,2.85,2.35,2.82,3.04,,2.59,2.16,0.62,3.15,81.51,13531,166,37.7580605,-121.4621751,Applebee's ,Applebee's Neighborhood Grill & Bar,United States,California,CA,San Joaquin County,Tracy,Naglee Road
222,1.33,1.33,3.75,3.0,3.67,3.25,4.0,,4.33,4.5,,3.43,0.23,10.22,26.0,3.71,26,7,39.91604,-79.75288,Applebee's ,Applebee's Neighborhood Grill & Bar,United States,Pennsylvania,PA,Fayette County,Uniontown,Walmart Drive
223,1.33,6.0,2.62,1.67,1.5,2.33,2.67,,2.43,3.5,,2.21,1.09,1.28,282.0,20.14,282,14,38.6635397,-75.5932942,Applebee's ,Applebee's Neighborhood Grill & Bar,United States,Delaware,DE,Sussex County,Seaford,Sussex Highway
224,1.0,3.0,1.5,2.25,1.0,2.17,2.25,1.5,2.5,3.5,,1.88,0.38,28.0,87.0,10.88,87,8,37.3490455,-87.4961294,Applebee's ,Applebee's Neighborhood Grill & Bar,United States,Kentucky,KY,Hopkins County,Madisonville,Chelsa Drive
225,1.22,1.22,2.18,1.67,2.33,1.64,2.4,1.5,2.3,2.83,,1.95,2.23,2.39,0.4,30.7,614,20,37.58761,-77.50013,Applebee's ,Applebee's Neighborhood Grill & Bar,United States,Virginia,VA,Henrico County,Richmond,West Broad Street
226,0.61,2.22,1.55,2.61,2.11,2.25,2.46,1.93,2.36,2.38,,2.21,0.27,0.86,17.7,69.66,2020,29,39.6937457,-104.8654607,Applebee's ,Applebee's Neighborhood Grill & Bar,United States,Colorado,CO,Arapahoe County,Aurora,East Garden Drive
227,0.89,6.2,2.0,3.11,3.2,2.48,2.44,2.72,2.61,3.08,,2.58,1.78,3.99,6.63,40.06,1442,36,35.5273944,-108.7668137,Applebee's ,Applebee's Neighborhood Grill & Bar,United States,New Mexico,NM,McKinley County,Gallup,West Maloney Avenue
228,1.3,1.3,2.46,2.5,2.8,2.23,2.73,2.36,2.45,3.29,,2.48,1.83,2.31,1.06,37.74,868,23,40.429356,-79.810559,Applebee's ,Applebee's Neighborhood Grill & Bar,United States,Pennsylvania,PA,Allegheny County,Pittsburgh,William Penn Highway
229,0.75,6.0,2.83,2.38,1.0,2.83,1.5,3.5,2.14,1.6,,2.57,1.03,4.09,59.48,142.57,1996,14,42.36163,-72.54163,Applebee's ,Applebee's Neighborhood Grill & Bar,United States,Massachusetts,MA,Hampshire County,Hadley,Russell Street
230,0.18,5.5,1.5,2.73,1.5,2.73,2.33,3.0,2.33,2.5,,2.54,0.22,1.12,457.0,35.15,457,13,38.7107227,-93.2694082,Applebee's ,Applebee's Neighborhood Grill & Bar,United States,Missouri,MO,Pettis County,Sedalia,West Broadway Boulevard
231,1.0,0.64,2.89,3.44,3.0,3.43,3.78,2.56,3.78,4.5,,3.17,1.14,0.58,2.39,36.89,664,18,39.7342215,-82.6276565,Applebee's ,Applebee's Neighborhood Grill & Bar,United States,Ohio,OH,Fairfield County,Lancaster,River Valley Circle North
232,1.4,5.0,3.57,2.8,3.0,3.3,3.67,2.83,3.17,3.67,,3.25,0.08,2.33,26.41,38.83,466,12,36.19652,-81.65532,Applebee's ,Applebee's Neighborhood Grill & Bar,United States,North Carolina,NC,Watauga County,Boone,Blowing Rock Road
233,0.6,1.0,2.0,2.4,3.25,1.25,1.5,3.0,1.75,3.0,,2.25,0.74,1.47,6.0,28.88,231,8,37.99239,-87.48875,Applebee's ,Applebee's Neighborhood Grill & Bar,United States,Indiana,IN,Vanderburgh County,Evansville,East Morgan Avenue
234,1.14,5.0,1.5,1.79,2.8,1.4,1.79,1.5,1.21,2.25,,1.63,0.76,1.48,8.91,22.8,684,30,33.04156,-84.97611,Applebee's ,Applebee's Neighborhood Grill & Bar,United States,Georgia,GA,Troup County,LaGrange,Lafayette Parkway
235,0.44,1.17,1.25,2.67,2.0,2.43,1.67,2.5,2.33,1.5,,2.23,0.39,3.21,10.12,41.08,534,13,27.5711263,-99.501807,Applebee's ,Applebee's Neighborhood Grill & Bar,United States,Texas,TX,Webb County,Laredo,San Dario Avenue
236,1.2,4.5,2.0,1.6,1.0,2.0,2.2,1.6,2.2,3.0,,1.82,0.56,4.1,406.0,36.91,406,11,39.8935423,-75.0876925,Applebee's ,Applebee's Neighborhood Grill & Bar,United States,New Jersey,NJ,Camden County,Audubon,Nicholson Road
237,0.5,1.12,1.75,1.79,1.71,1.84,2.31,,2.0,2.64,,1.78,0.91,5.79,4.46,12.58,453,36,35.02981,-79.0583,Applebee's ,Applebee's Neighborhood Grill & Bar,United States,North Carolina,NC,Cumberland County,Fayetteville,Good Middling Drive
238,0.91,1.1,2.0,2.0,2.1,1.91,2.3,1.8,2.3,2.57,,2.0,5.77,1.68,0.76,87.86,1845,21,43.085873,-77.63648,Applebee's ,Applebee's Neighborhood Grill & Bar,United States,New York,NY,Monroe County,Rochester,West Henrietta Road
239,1.0,4.33,2.38,2.12,2.0,2.31,2.5,2.0,2.75,2.4,1.5,2.27,2.66,2.98,26.58,76.12,1218,16,35.6098153,-78.5600617,Applebee's ,Applebee's Neighborhood Grill & Bar,United States,North Carolina,NC,Johnston County,Garner,North Carolina 42
240,1.31,5.0,2.76,2.38,2.0,2.72,2.47,2.73,2.87,2.38,,2.6,0.43,1.99,2.62,44.93,1348,30,40.88965,-111.89263,Applebee's ,Applebee's Neighborhood Grill & Bar,United States,Utah,UT,Davis County,Bountiful,North 500 West
241,0.67,1.5,1.25,1.83,1.25,1.83,1.8,1.4,1.4,1.67,,1.6,0.41,5.0,7.5,15.3,153,10,27.612011,-99.465664,Applebee's ,Applebee's Neighborhood Grill & Bar,United States,Texas,TX,Webb County,Laredo,International Boulevard
242,0.63,15.0,2.29,2.47,1.8,2.44,2.5,2.3,2.82,2.82,,2.4,0.94,1.78,15.23,86.4,6912,80,40.9094,-74.03053,Applebee's ,Applebee's Neighborhood Grill & Bar,United States,New Jersey,NJ,Bergen County,Hackensack,Hackensack Avenue
243,0.85,3.0,2.09,2.38,1.83,2.39,2.25,2.25,2.67,3.12,,2.25,0.85,4.44,53.63,122.92,2950,24,41.5496465,-87.1744603,Applebee's ,Applebee's Neighborhood Grill & Bar,United States,Indiana,IN,Porter County,Portage,Veterans Avenue
244,1.5,0.67,3.25,2.62,3.08,2.88,3.1,2.9,3.5,3.86,,3.0,2.19,2.15,0.88,38.45,769,20,29.6592319,-82.4217693,Applebee's ,Applebee's Neighborhood Grill & Bar,United States,Florida,FL,Alachua County,Gainesville,West Newberry Road
245,1.4,0.71,3.29,4.4,3.57,4.0,4.33,3.17,4.17,4.5,,3.75,1.12,1.69,0.52,56.67,680,12,41.7313549,-93.5832844,Applebee's ,Applebee's Neighborhood Grill & Bar,United States,Iowa,IA,Polk County,Ankeny,East 1st Street
246,0.2,0.5,3.0,3.0,2.75,3.5,3.0,3.0,2.5,2.0,,3.0,0.28,23.2,0.41,19.33,232,12,44.82971,-93.28772,Applebee's ,Applebee's Neighborhood Grill & Bar,United States,Minnesota,MN,Hennepin County,Minneapolis,Lyndale Avenue South
247,0.57,2.67,2.0,2.0,1.67,2.12,2.0,,3.0,3.0,,2.0,0.32,0.28,88.5,16.27,179,11,42.8547254,-106.2672985,Applebee's ,Applebee's Neighborhood Grill & Bar,United States,Wyoming,WY,Natrona County,Evansville,Miracle Street
248,1.08,3.17,2.54,2.67,2.33,2.68,2.75,2.33,3.33,3.71,,2.6,0.85,0.74,2.38,45.84,1146,25,39.094992,-84.261804,Applebee's ,Applebee's Neighborhood Grill & Bar,United States,Ohio,OH,Clermont County,Cincinnati,James A. Rhodes Appalachian Highway
249,1.67,15.0,3.4,3.0,3.0,3.27,3.0,3.67,2.88,2.8,,3.25,0.74,0.22,1055.0,65.94,1055,16,32.070731,-96.447102,Applebee's ,Applebee's Neighborhood Grill & Bar,United States,Texas,TX,Navarro County,Corsicana,Interstate 45
250,0.86,1.6,3.5,4.0,4.4,3.38,4.0,3.5,3.5,4.0,,3.77,0.31,0.68,1.88,9.08,118,13,38.814805300944,-90.8764955151471,Applebee's ,Applebee's Neighborhood Grill & Bar,United States,Missouri,MO,St. Charles County,Wentzville,Wentzville Parkway
251,0.4,1.8,2.5,2.7,3.2,2.33,2.86,2.43,2.86,3.0,,2.64,0.53,1.28,2.52,12.57,176,14,32.38297,-86.18183,Applebee's ,Applebee's Neighborhood Grill & Bar,United States,Alabama,AL,Montgomery County,Montgomery,Atlanta Highway
252,1.17,3.33,2.57,2.33,2.33,2.5,2.0,2.67,2.17,2.0,,2.46,1.22,0.05,41.56,29.46,383,13,44.77953,-93.504471,Applebee's ,Applebee's Neighborhood Grill & Bar,United States,Minnesota,MN,Scott County,Shakopee,Vierling Drive East
253,1.2,1.2,1.83,2.8,2.0,2.5,2.4,2.0,2.4,3.0,,2.27,0.48,0.88,0.21,8.36,92,11,37.7322163,-84.2813531,Applebee's ,Applebee's Neighborhood Grill & Bar,United States,Kentucky,KY,Madison County,Richmond,Eastern Bypass
254,1.0,3.0,1.67,2.0,1.67,1.89,2.5,1.17,2.5,2.75,,1.83,0.85,1.52,4.16,46.42,557,12,36.7659441,-108.1490686,Applebee's ,Applebee's Neighborhood Grill & Bar,United States,New Mexico,NM,San Juan County,Farmington,East Main Street
255,0.84,6.0,2.12,1.89,2.8,1.87,2.47,1.59,2.06,2.09,,2.0,0.9,1.11,2.82,57.69,2019,35,33.5742722,-84.3715057,Applebee's ,Applebee's Neighborhood Grill & Bar,United States,Georgia,GA,Clayton County,Jonesboro,Tara Boulevard
256,0.57,4.5,1.5,2.86,2.25,2.39,3.2,1.4,3.0,3.71,,2.36,0.71,3.15,19.33,38.82,854,22,39.6894418322642,-75.655667020134,Applebee's ,Applebee's Neighborhood Grill & Bar,United States,Delaware,DE,New Castle County,Newark,Churchmans Road
257,0.65,0.79,2.41,2.31,2.54,2.11,3.0,1.71,3.05,3.07,,2.35,3.22,0.56,0.47,81.49,3504,43,39.39559,-76.576378,Applebee's ,Applebee's Neighborhood Grill & Bar,United States,Maryland,MD,Baltimore County,Towson,Lasalle Road
258,1.4,3.0,2.29,2.2,1.33,2.56,2.33,2.17,2.0,2.5,,2.25,0.18,0.45,5.28,20.42,245,12,41.43889,-97.32427,Applebee's ,Applebee's Neighborhood Grill & Bar,United States,Nebraska,NE,Platte County,Columbus,Lincoln Highway
259,1.14,2.0,3.12,2.14,3.2,2.4,2.33,2.86,3.0,2.5,,2.67,0.08,1.36,1.5,14.33,215,15,33.53252,-88.43683,Applebee's ,Applebee's Neighborhood Grill & Bar,United States,Mississippi,MS,Lowndes County,Columbus,U.S. 45
260,0.95,4.29,1.94,1.79,1.57,1.93,2.53,1.33,2.0,2.88,,1.86,0.74,0.37,12.11,23.03,852,37,30.6003694080985,-97.4176970742294,Applebee's ,Applebee's Neighborhood Grill & Bar,United States,Texas,TX,Williamson County,Taylor,Carlos G Parker Boulevard Northwest
261,1.67,0.6,2.0,1.33,1.3,2.5,2.25,1.25,1.5,1.4,,1.75,0.45,0.51,3.84,26.0,416,16,37.4126,-79.21157,Applebee's ,Applebee's Neighborhood Grill & Bar,United States,Virginia,VA,,Lynchburg,Old Forest Road
262,1.0,11.29,2.56,2.65,3.14,2.56,2.67,2.53,2.83,3.1,,2.6,2.49,0.94,110.78,102.69,8831,86,40.7408538,-73.5912913,Applebee's ,Applebee's Neighborhood Grill & Bar,United States,New York,NY,Nassau County,Westbury,Corporate Drive
263,1.39,6.17,2.8,3.33,3.33,2.97,3.57,2.48,3.19,3.47,,3.02,4.88,1.07,5.78,98.84,4250,43,41.662144,-71.546399,Applebee's ,Applebee's Neighborhood Grill & Bar,United States,Rhode Island,RI,Kent County,Coventry,Centre of New England Boulevard
264,0.83,0.47,2.23,2.32,2.31,2.22,2.42,2.12,2.53,2.62,2.0,2.29,0.88,1.24,0.39,41.19,7456,181,37.248712,-121.803549,Applebee's ,Applebee's Neighborhood Grill & Bar,United States,California,CA,Santa Clara County,San Jose,Cottle Road
265,1.7,0.5,2.29,2.4,2.83,1.33,2.83,1.77,2.77,2.89,,2.33,2.51,0.86,0.09,140.78,3801,27,38.0680587,-84.5300395,Applebee's ,Applebee's Neighborhood Grill & Bar,United States,Kentucky,KY,Fayette County,Lexington,Sharkey Way
266,2.6,2.6,2.69,2.8,2.8,2.69,2.5,3.12,3.11,2.25,,2.72,1.99,4.67,164.0,18.33,330,18,38.3136689,-85.7628595,Applebee's ,Applebee's Neighborhood Grill & Bar,United States,Indiana,IN,Clark County,Clarksville,East Lewis and Clark Parkway
267,0.58,8.67,2.69,2.6,3.11,2.58,2.81,2.47,2.72,2.83,2.0,2.65,1.13,1.14,7.67,133.13,11582,87,40.7344589,-73.8704971,Applebee's ,Applebee's Neighborhood Grill & Bar,United States,New York,NY,Queens County,,Queens Boulevard
268,0.53,0.92,2.56,2.37,2.38,2.5,2.3,2.57,2.26,2.56,,2.43,0.7,1.92,1.98,67.76,3117,46,40.0916971,-75.1251045,Applebee's ,Applebee's Neighborhood Grill & Bar,United States,Pennsylvania,PA,Montgomery County,Jenkintown,Old York Road
269,0.79,1.74,3.13,2.1,2.58,2.55,2.31,2.81,2.68,2.23,4.5,2.5,0.97,1.99,2.24,38.21,1987,52,42.3813014340487,-83.3340616143226,Applebee's ,Applebee's Neighborhood Grill & Bar,United States,Michigan,MI,Wayne County,Livonia,Middlebelt Road
270,1.0,2.14,1.82,2.09,2.14,1.87,2.45,1.45,2.33,2.6,,1.95,0.54,2.37,1.52,21.73,478,22,38.06456,-78.93694,Applebee's ,Applebee's Neighborhood Grill & Bar,United States,Virginia,VA,,Waynesboro,Lew Dewitt Boulevard
271,1.0,2.88,2.77,2.23,2.75,2.41,2.52,2.48,2.63,3.06,,2.5,0.46,0.86,3.86,44.24,2743,62,47.87585,-122.15589,Applebee's ,Applebee's Neighborhood Grill & Bar,United States,Washington,WA,Snohomish County,Everett,136th Street Southeast
272,0.8,1.25,3.25,3.2,3.75,2.8,2.75,3.5,3.0,4.0,,3.22,3.17,0.66,0.28,28.78,259,9,42.0118760878175,-93.6109896287607,Applebee's ,Applebee's Neighborhood Grill & Bar,United States,Iowa,IA,Story County,Ames,Chestnut Street
273,0.87,7.6,2.9,2.87,2.6,2.92,2.86,2.95,3.1,3.07,,2.88,0.19,0.83,3.18,68.47,2944,43,40.78421,-73.1099,Applebee's ,Applebee's Neighborhood Grill & Bar,United States,New York,NY,Suffolk County,Bohemia,Veterans Memorial Highway
274,2.67,1.75,2.88,2.0,3.0,2.43,1.0,,2.5,1.0,,2.64,0.32,19.33,7.25,6.0,66,11,27.2432575,-80.8171564,Applebee's ,Applebee's Neighborhood Grill & Bar,United States,Florida,FL,Okeechobee County,Okeechobee,Florida 70
275,0.66,13.71,1.93,2.21,2.0,2.1,2.36,1.8,2.39,2.8,,2.1,0.62,0.99,23.27,38.87,4004,103,33.3779444,-112.1713758,Applebee's ,Applebee's Neighborhood Grill & Bar,United States,Arizona,AZ,Maricopa County,Phoenix,West Baseline Road
276,0.93,0.71,1.5,2.53,2.18,1.83,2.14,2.0,2.07,2.44,,2.03,1.45,3.8,0.96,73.55,2133,29,35.20432,-89.86376,Applebee's ,Applebee's Neighborhood Grill & Bar,United States,Tennessee,TN,Shelby County,Bartlett,Bartlett Boulevard
277,1.7,2.0,3.53,3.6,3.33,3.67,3.62,3.69,3.46,3.78,,3.56,1.34,2.36,3.07,37.96,1025,27,41.6895823,-71.4988722,Applebee's ,Applebee's Neighborhood Grill & Bar,United States,Rhode Island,RI,Kent County,Warwick,Quaker Lane
278,0.6,1.82,1.83,1.8,2.21,1.6,1.98,1.62,1.91,2.13,1.0,1.82,1.77,1.18,2.17,43.38,4164,96,42.5040518,-83.2228495,Applebee's ,Applebee's Neighborhood Grill & Bar,United States,Michigan,MI,Oakland County,Southfield,Southfield Road
279,1.62,6.0,2.15,1.88,2.0,2.06,2.9,1.1,2.6,2.5,,2.05,3.65,0.44,62.41,96.62,2029,21,41.9643428,-73.990207,Applebee's ,Applebee's Neighborhood Grill & Bar,United States,New York,NY,Ulster County,Kingston,Ulster Avenue
280,1.71,2.8,1.83,2.29,1.4,2.21,2.38,1.67,1.89,1.67,,2.0,1.54,0.91,1.18,27.16,516,19,33.348893,-86.6289691,Applebee's ,Applebee's Neighborhood Grill & Bar,United States,Alabama,AL,Shelby County,Chelsea,Chesser Plantation Lane
281,0.71,2.42,1.94,1.42,1.75,1.59,1.85,1.45,2.1,1.6,,1.63,5.28,3.01,18.1,72.68,2980,41,33.6505573,-83.9966111,Applebee's ,Applebee's Neighborhood Grill & Bar,United States,Georgia,GA,Rockdale County,Conyers,Dogwood Drive Southeast
282,1.67,7.0,3.9,2.83,3.0,3.57,3.0,4.0,3.5,3.6,,3.5,1.09,0.27,35.85,126.69,2027,16,36.1748199,-94.17433,Applebee's ,Applebee's Neighborhood Grill & Bar,United States,Arkansas,AR,Washington County,Springdale,South 40th Street
283,2.0,1.5,2.1,4.0,3.33,2.33,3.0,2.14,2.43,2.0,,2.73,1.79,0.96,0.49,77.47,1162,15,39.9212456,-83.1218485,Applebee's ,Applebee's Neighborhood Grill & Bar,United States,Ohio,OH,Franklin County,Columbus,Georgesville Square Drive
284,0.82,3.0,2.11,2.27,2.6,2.07,2.0,2.4,2.6,3.0,,2.2,0.14,2.26,3.48,15.45,309,20,43.3333168,-73.6503264,Applebee's ,Applebee's Neighborhood Grill & Bar,United States,New York,NY,Warren County,Queensbury,Quaker Road
285,4.0,4.0,3.58,2.33,1.67,3.75,3.57,3.29,3.14,3.0,,3.33,0.85,0.55,13.51,179.93,2699,15,41.45275,-91.02932,Applebee's ,Applebee's Neighborhood Grill & Bar,United States,Iowa,IA,Muscatine County,Muscatine,Cleveland Street
286,0.65,0.54,3.18,3.08,3.11,3.13,3.29,2.9,3.14,3.92,,3.12,0.97,0.81,1.44,109.47,4707,43,39.67536,-104.82458,Applebee's ,Applebee's Neighborhood Grill & Bar,United States,Colorado,CO,Arapahoe County,Aurora,East Iliff Avenue
287,0.56,2.5,2.0,1.78,2.25,1.7,1.57,2.14,1.86,2.25,,1.86,1.99,1.49,1.89,69.86,978,14,38.3274312,-81.7122116,Applebee's ,Applebee's Neighborhood Grill & Bar,United States,West Virginia,WV,Kanawha County,Charleston,Dudley Farms Lane
288,0.71,0.45,1.83,2.06,1.9,2.11,1.71,2.21,1.86,1.89,,1.97,3.06,0.17,0.22,175.48,5089,29,42.908375,-78.77016,Applebee's ,Applebee's Neighborhood Grill & Bar,United States,New York,NY,Erie County,Cheektowaga,Walden Avenue
289,1.1,1.62,2.45,3.1,2.62,2.85,3.0,2.4,2.3,2.5,,2.76,0.79,1.38,6.39,51.71,1086,21,30.285511,-89.7482689,Applebee's ,Applebee's Neighborhood Grill & Bar,United States,Louisiana,LA,St. Tammany Parish,Slidell,East I- 10 Srv Road
290,0.78,11.0,2.48,2.7,2.75,2.59,2.57,2.43,2.58,3.0,3.5,2.55,1.04,4.2,40.42,69.73,3347,48,39.8882279,-75.3278102,Applebee's ,Applebee's Neighborhood Grill & Bar,United States,Pennsylvania,PA,Delaware County,Folsom,MacDade Boulevard
291,0.67,2.89,2.25,2.26,1.94,2.37,2.17,2.34,2.77,2.72,,2.26,0.87,1.17,16.19,72.19,5053,70,40.762576714895,-74.1592705249786,Applebee's ,Applebee's Neighborhood Grill & Bar,United States,New Jersey,NJ,Hudson County,Kearny,Passaic Avenue
292,1.18,3.0,4.08,3.18,2.67,4.0,3.7,3.91,3.25,3.5,,3.67,1.54,0.2,15.9,34.5,828,24,42.5851405,-72.6186547,Applebee's ,Applebee's Neighborhood Grill & Bar,United States,Massachusetts,MA,Franklin County,Greenfield,Mohawk Trail
293,1.67,7.0,2.4,2.33,2.0,2.43,3.0,1.75,3.0,2.33,,2.38,0.08,10.94,401.0,50.12,401,8,41.41075,-92.93268,Applebee's ,Applebee's Neighborhood Grill & Bar,United States,Iowa,IA,Marion County,Pella,Washington Street
294,1.7,0.59,3.41,3.4,3.18,3.8,3.54,3.15,3.38,3.57,4.0,3.35,1.22,0.72,0.95,37.07,1001,27,39.16195,-86.49648,Applebee's ,Applebee's Neighborhood Grill & Bar,United States,Indiana,IN,Monroe County,Bloomington,
295,0.82,3.0,2.78,3.09,2.8,3.0,3.2,2.7,2.9,2.83,,2.95,0.46,1.25,2.32,26.05,521,20,39.830666,-84.8411203,Applebee's ,Applebee's Neighborhood Grill & Bar,United States,Indiana,IN,Wayne County,Richmond,National Road East
296,0.75,6.0,2.67,3.75,3.0,3.33,4.0,2.0,4.0,4.0,,3.29,0.26,2.0,44.0,6.29,44,7,45.062112,-83.480388,Applebee's ,Applebee's Neighborhood Grill & Bar,United States,Michigan,MI,Alpena County,Alpena,Michigan 32
297,0.75,2.5,2.33,1.25,1.5,1.8,1.33,1.0,1.5,1.5,,1.71,5.21,1.54,2.55,40.57,284,7,33.5706302,-84.3726901,Applebee's ,Applebee's Neighborhood Grill & Bar,United States,Georgia,GA,Clayton County,Jonesboro,Tara Boulevard
298,1.43,1.12,2.9,4.29,3.25,3.67,4.14,3.12,3.38,4.33,,3.47,1.12,0.9,2.84,16.94,288,17,42.27103,-84.98276,Applebee's ,Applebee's Neighborhood Grill & Bar,United States,Michigan,MI,Calhoun County,Marshall,West Michigan Avenue
299,0.64,1.41,1.88,2.86,2.47,2.48,2.56,2.39,2.59,2.48,,2.48,0.54,0.99,2.04,41.6,3411,82,48.07518,-122.18083,Applebee's ,Applebee's Neighborhood Grill & Bar,United States,Washington,WA,Snohomish County,Marysville,88th Street Northeast
300,0.63,3.45,3.05,3.23,2.55,3.34,3.22,3.08,3.33,3.43,,3.16,2.02,0.88,4.69,44.27,2169,49,45.3813269,-122.7634494,Applebee's ,Applebee's Neighborhood Grill & Bar,United States,Oregon,OR,Washington County,Tualatin,Southwest Tualatin-Sherwood Road
301,1.71,2.17,2.67,2.43,3.17,2.31,3.22,2.11,2.44,2.67,,2.58,1.02,1.63,2.04,81.53,1549,19,36.03521,-79.96299,Applebee's ,Applebee's Neighborhood Grill & Bar,United States,North Carolina,NC,Guilford County,High Point,John Gordon Lane
302,0.85,1.4,2.23,2.85,2.35,2.71,2.96,2.17,2.67,3.13,,2.56,0.86,1.94,3.0,59.46,2854,48,35.9031289,-78.7873614,Applebee's ,Applebee's Neighborhood Grill & Bar,United States,North Carolina,NC,Wake County,Raleigh,Brier Creek Parkway
303,2.6,8.0,3.38,3.0,2.5,3.38,3.25,3.38,3.56,3.67,,3.28,1.82,0.12,7.77,33.61,605,18,41.1889548,-79.393065,Applebee's ,Applebee's Neighborhood Grill & Bar,United States,Pennsylvania,PA,Clarion County,Clarion,Hotel Drive
304,0.5,2.75,3.4,2.8,2.75,3.09,3.0,2.71,2.71,2.2,,3.0,0.47,0.28,0.55,151.13,2267,15,42.02616,-88.08055,Applebee's ,Applebee's Neighborhood Grill & Bar,United States,Illinois,IL,Cook County,Schaumburg,South Roselle Road
305,1.1,6.0,2.45,1.8,1.67,2.22,2.3,2.1,2.5,2.8,,2.14,1.9,0.83,23.64,29.33,616,21,35.0446045097754,-85.1555177941919,Applebee's ,Applebee's Neighborhood Grill & Bar,United States,Tennessee,TN,Hamilton County,Chattanooga,Shallowford Village Drive
306,1.18,3.0,2.08,2.09,2.0,2.11,2.42,1.75,1.73,1.6,,2.08,0.13,0.63,1.34,14.79,355,24,37.2733691338098,-107.883940695249,Applebee's ,Applebee's Neighborhood Grill & Bar,United States,Colorado,CO,La Plata County,Durango,Camino Del Rio
307,1.14,1.5,3.25,2.29,3.67,2.22,3.29,2.57,3.14,3.5,,2.8,2.57,0.17,3.38,68.4,1026,15,40.1895492,-77.1973374,Applebee's ,Applebee's Neighborhood Grill & Bar,United States,Pennsylvania,PA,Cumberland County,Carlisle,Noble Boulevard
308,0.55,8.0,3.09,3.25,3.09,3.2,3.16,3.25,2.83,3.2,,3.19,2.57,1.25,5.85,55.45,5490,99,21.384863,-157.940431,Applebee's ,Applebee's Neighborhood Grill & Bar,United States,Hawaii,HI,Honolulu County,Aiea,Moanalua Road
309,0.77,1.09,2.8,2.15,2.45,2.42,3.09,,2.7,3.83,,2.43,0.67,2.36,2.54,10.61,244,23,44.0631861,-92.5005504,Applebee's ,Applebee's Neighborhood Grill & Bar,United States,Minnesota,MN,Olmsted County,Rochester,Marketplace Drive Northwest
310,0.49,1.6,2.53,2.8,2.3,2.97,2.88,2.68,3.0,2.62,,2.71,0.5,0.74,4.17,27.02,1405,52,42.67511,-82.83002,Applebee's ,Applebee's Neighborhood Grill & Bar,United States,Michigan,MI,Macomb County,New Baltimore,23 Mile Road
311,1.0,5.0,1.67,4.0,1.0,3.2,3.0,2.67,3.0,2.0,,2.83,0.13,1.38,174.0,29.0,174,6,39.72246,-90.2607,Applebee's ,Applebee's Neighborhood Grill & Bar,United States,Illinois,IL,Morgan County,Jacksonville,West Morton Avenue
312,1.33,4.0,2.4,2.2,2.29,2.32,2.18,2.36,2.82,3.0,,2.31,1.19,3.13,4.36,66.77,2337,35,39.300342,-77.844152,Applebee's ,Applebee's Neighborhood Grill & Bar,United States,West Virginia,WV,Jefferson County,Ranson,Jefferson Crossing Way
313,0.59,3.5,2.5,2.0,2.5,2.1,2.38,2.08,2.31,2.3,,2.19,0.28,0.49,5.63,47.41,1280,27,38.8143694,-94.5177464,Applebee's ,Applebee's Neighborhood Grill & Bar,United States,Missouri,MO,Cass County,Belton,East North Avenue
314,0.5,5.0,2.17,1.58,1.33,1.87,2.0,1.62,2.11,2.17,,1.78,0.72,0.73,113.33,19.06,343,18,33.6056374,-83.8717407,Applebee's ,Applebee's Neighborhood Grill & Bar,United States,Georgia,GA,Newton County,Covington,U.S. 278
315,0.75,3.38,1.8,1.95,1.25,2.07,2.06,1.71,2.0,2.11,,1.89,1.09,3.49,6.09,63.37,2218,35,40.1421399,-88.2585105,Applebee's ,Applebee's Neighborhood Grill & Bar,United States,Illinois,IL,Champaign County,Champaign,North Prospect Avenue
316,0.71,3.0,3.0,2.0,3.33,2.11,2.5,2.33,3.0,2.75,,2.42,2.88,9.21,6.98,31.25,375,12,41.617245678498,-85.893077412235,Applebee's ,Applebee's Neighborhood Grill & Bar,United States,Indiana,IN,Elkhart County,Goshen,Rieth Boulevard
317,1.15,1.8,2.0,1.62,2.1,1.67,2.07,1.57,2.29,2.4,,1.82,0.66,0.9,3.13,14.61,409,28,41.4226845,-73.6297436,Applebee's ,Applebee's Neighborhood Grill & Bar,United States,New York,NY,Putnam County,Brewster,Independent Way
318,0.74,4.55,1.38,2.17,2.27,1.74,1.83,1.87,1.57,1.64,,1.84,0.33,1.42,3.11,26.3,1604,61,38.5816,-77.31138,Applebee's ,Applebee's Neighborhood Grill & Bar,United States,Virginia,VA,Prince William County,Dumfries,Pine Bluff Drive
319,4.25,2.0,2.94,2.75,3.14,2.79,3.3,2.7,2.5,2.89,,2.9,1.38,1.65,0.76,48.19,1012,21,37.504568,-77.579718,Applebee's ,Applebee's Neighborhood Grill & Bar,United States,Virginia,VA,Chesterfield County,Richmond,Moorefield Park Drive
320,3.5,3.5,2.14,2.5,2.5,2.14,2.25,,3.0,3.0,,2.22,0.23,0.03,7.75,11.67,105,9,41.3622262,-86.3302132,Applebee's ,Applebee's Neighborhood Grill & Bar,United States,Indiana,IN,Marshall County,Plymouth,North Oak Drive
321,1.22,4.0,2.18,2.44,1.75,2.44,2.4,2.2,2.2,2.43,,2.3,0.53,1.18,0.93,101.85,2037,20,42.4247589,-71.0694046,Applebee's ,Applebee's Neighborhood Grill & Bar,United States,Massachusetts,MA,Middlesex County,Malden,Centre Street
322,1.29,1.67,1.22,1.57,1.5,1.3,1.25,1.5,1.75,1.6,,1.38,0.25,1.2,1.8,23.31,373,16,34.1145561,-80.8878262,Applebee's ,Applebee's Neighborhood Grill & Bar,United States,South Carolina,SC,Richland County,Columbia,Two Notch Road
323,2.4,0.7,2.42,3.0,2.5,2.71,2.0,3.12,2.12,2.75,,2.59,0.64,0.54,3.33,76.59,1302,17,42.268149,-88.983085,Applebee's ,Applebee's Neighborhood Grill & Bar,United States,Illinois,IL,Winnebago County,Rockford,Stalter Drive
324,1.06,4.83,2.28,1.94,1.67,2.21,2.0,2.12,2.71,2.64,,2.11,0.89,2.43,10.56,35.0,1225,35,41.514877,-71.3007465,Applebee's ,Applebee's Neighborhood Grill & Bar,United States,Rhode Island,RI,Newport County,Middletown,West Main Road
325,1.5,5.67,2.92,3.25,2.67,3.12,4.0,2.1,3.67,4.0,,3.05,1.24,0.68,8.15,21.95,439,20,33.6784786276532,-97.1559071796156,Applebee's ,Applebee's Neighborhood Grill & Bar,United States,Texas,TX,Cooke County,Gainesville,Interstate 35 Frontage Road
326,1.38,5.33,3.0,2.5,3.33,2.69,2.78,2.89,2.56,2.6,,2.79,0.66,2.34,11.67,24.0,456,19,40.6752680983548,-75.1401936859127,Applebee's ,Applebee's Neighborhood Grill & Bar,United States,New Jersey,NJ,Warren County,Phillipsburg,U.S. 22
327,1.71,0.9,3.17,2.86,3.2,2.89,2.78,3.11,3.33,3.4,,3.05,1.47,0.21,16.59,31.47,598,19,40.422092,-105.075942,Applebee's ,Applebee's Neighborhood Grill & Bar,United States,Colorado,CO,Larimer County,Loveland,East 29th Street
328,0.87,2.23,2.27,2.71,2.05,2.71,2.57,2.4,2.51,3.12,,2.51,0.72,1.23,3.32,48.89,3471,71,42.27856,-71.03087,Applebee's ,Applebee's Neighborhood Grill & Bar,United States,Massachusetts,MA,Norfolk County,Quincy,Price Street
329,1.88,4.75,2.8,3.12,3.25,2.84,3.36,2.6,3.09,3.25,,2.91,0.19,3.37,3.87,16.3,375,23,41.3092034,-105.5544082,Applebee's ,Applebee's Neighborhood Grill & Bar,United States,Wyoming,WY,Albany County,Laramie,Grand Avenue
330,1.12,4.14,3.89,3.53,3.71,3.72,3.67,3.78,3.82,3.93,,3.72,5.37,0.32,17.16,82.22,2960,36,42.63037,-83.00981,Applebee's ,Applebee's Neighborhood Grill & Bar,United States,Michigan,MI,Macomb County,Utica,Park Avenue
331,2.67,1.2,2.12,2.67,2.2,2.33,2.4,1.8,2.4,2.5,,2.27,0.29,0.44,1.3,23.18,255,11,34.5649951,-83.2973647,Applebee's ,Applebee's Neighborhood Grill & Bar,United States,Georgia,GA,Stephens County,Toccoa,Big A Road
332,0.71,2.72,3.17,3.16,3.15,3.17,3.19,3.11,3.15,3.11,,3.16,1.27,0.81,2.32,95.53,16336,171,33.99826,-117.71835,Applebee's ,Applebee's Neighborhood Grill & Bar,United States,California,CA,San Bernardino County,Chino,Grand Avenue
333,1.35,3.36,2.4,2.15,1.93,2.4,2.47,2.17,2.37,2.8,,2.3,0.81,0.99,4.95,29.84,1820,61,41.654915,-87.742092,Applebee's ,Applebee's Neighborhood Grill & Bar,United States,Illinois,IL,Cook County,Crestwood,Cal Sag Road
334,8.0,0.5,2.0,2.0,2.17,1.67,2.0,1.5,2.75,2.5,,2.0,0.07,0.91,1.26,19.56,176,9,39.4266,-84.5963719,Applebee's ,Applebee's Neighborhood Grill & Bar,United States,Ohio,OH,Butler County,Hamilton,Northwest Washington Boulevard
335,0.89,7.37,2.05,2.02,2.2,2.01,2.26,1.81,2.24,2.48,1.5,2.03,1.04,1.51,5.29,114.97,28857,251,37.702169,-121.882339,Applebee's ,Applebee's Neighborhood Grill & Bar,United States,California,CA,Alameda County,Dublin,Dublin Boulevard
336,0.6,1.67,2.0,2.6,2.83,2.1,2.75,2.0,2.43,2.5,,2.38,1.13,0.69,0.58,17.94,287,16,42.610111,-73.78995,Applebee's ,Applebee's Neighborhood Grill & Bar,United States,New York,NY,Albany County,Glenmont,North Route 9W
337,0.75,2.0,2.89,2.58,2.71,2.71,2.78,2.9,2.7,3.67,,2.71,1.22,1.54,3.36,11.62,244,21,41.78561,-85.42766,Applebee's ,Applebee's Neighborhood Grill & Bar,United States,Michigan,MI,St. Joseph County,Sturgis,South Centerville Road
338,0.5,2.0,3.67,2.83,3.0,3.17,4.0,3.0,3.25,4.5,,3.11,0.29,3.2,3.7,46.0,414,9,37.862697,-87.573955,Applebee's ,Applebee's Neighborhood Grill & Bar,United States,Kentucky,KY,Henderson County,Henderson,U.S. 41
339,0.8,2.0,2.0,3.8,2.33,3.33,3.5,,2.5,2.0,,3.0,0.36,0.75,0.93,6.44,58,9,42.6483417206047,-85.2966700000062,Applebee's ,Applebee's Neighborhood Grill & Bar,United States,Michigan,MI,Barry County,Hastings,West State Street
340,0.66,17.4,3.27,2.9,2.67,3.07,3.02,3.07,3.07,3.04,,3.05,1.57,1.9,19.04,114.85,31698,276,34.23884,-118.57178,Applebee's ,Applebee's Neighborhood Grill & Bar,United States,California,CA,Los Angeles County,Los Angeles,Winnetka Avenue
341,1.67,0.5,1.93,1.22,1.81,1.38,1.82,1.3,2.08,2.5,,1.67,1.87,0.85,0.43,27.83,668,24,39.2041394,-94.5478331,Applebee's ,Applebee's Neighborhood Grill & Bar,United States,Missouri,MO,Clay County,Gladstone,Northeast Antioch Road
342,0.78,1.33,2.33,2.02,2.55,1.86,2.38,1.78,2.04,2.13,,2.15,0.12,0.37,2.96,44.89,4399,98,33.7151224,-116.2184565,Applebee's ,Applebee's Neighborhood Grill & Bar,United States,California,CA,Riverside County,Indio,California 111
343,1.0,7.0,2.75,2.62,2.5,2.71,3.62,1.75,2.75,4.0,,2.69,0.67,0.66,24.73,24.12,386,16,41.725095,-73.931499,Applebee's ,Applebee's Neighborhood Grill & Bar,United States,New York,NY,Dutchess County,Poughkeepsie,North Road
344,0.87,3.67,2.15,2.07,2.5,2.0,1.79,2.43,2.36,2.0,,2.11,0.54,1.93,2.17,38.14,1068,28,40.2548712128548,-76.8326768820313,Applebee's ,Applebee's Neighborhood Grill & Bar,United States,Pennsylvania,PA,Dauphin County,Harrisburg,Paxton Street
345,0.91,1.47,1.5,2.18,1.35,2.2,2.0,1.71,2.2,2.75,,1.86,0.78,6.36,9.25,71.0,2982,42,33.0368205,-80.1568566,Applebee's ,Applebee's Neighborhood Grill & Bar,United States,South Carolina,SC,Berkeley County,Summerville,North Main Street
346,0.84,1.92,2.81,2.53,2.67,2.65,3.0,2.44,2.44,2.57,,2.66,4.17,0.63,27.8,261.69,9159,35,40.1295479,-75.4036225,Applebee's ,Applebee's Neighborhood Grill & Bar,United States,Pennsylvania,PA,Montgomery County,Audubon,South Trooper Road
347,1.4,1.4,2.57,2.4,2.4,2.57,1.83,3.17,1.67,1.0,,2.5,0.18,4.53,14.94,22.58,271,12,39.9355869,-91.3539658,Applebee's ,Applebee's Neighborhood Grill & Bar,United States,Illinois,IL,Adams County,Quincy,Broadway Street
348,0.69,5.75,3.55,2.75,2.75,3.13,3.23,2.77,3.0,3.67,,3.07,0.78,5.22,31.3,178.22,4812,27,39.8494758,-74.977975,Applebee's ,Applebee's Neighborhood Grill & Bar,United States,New Jersey,NJ,Camden County,Voorhees Township,County Route 561
349,1.0,2.0,1.67,2.17,2.25,1.75,2.0,,1.5,1.0,,1.92,0.12,0.17,13.67,14.67,176,12,45.0269355,-84.6986871,Applebee's ,Applebee's Neighborhood Grill & Bar,United States,Michigan,MI,Otsego County,Gaylord,West Main Street
350,0.81,1.92,3.0,2.38,2.23,2.88,2.79,2.53,3.11,3.31,,2.66,1.84,0.94,6.52,224.92,8547,38,26.5269645,-80.0950215,Applebee's ,Applebee's Neighborhood Grill & Bar,United States,Florida,FL,Palm Beach County,Boynton Beach,West Boynton Beach Boulevard
351,0.62,2.0,3.88,2.92,2.86,3.5,3.5,3.1,3.4,3.33,,3.29,1.56,0.28,4.5,41.62,874,21,40.6123315,-75.5336017,Applebee's ,Applebee's Neighborhood Grill & Bar,United States,Pennsylvania,PA,Lehigh County,Allentown,North Cedar Crest Boulevard
352,2.0,8.0,2.17,3.67,4.0,2.5,3.5,1.75,3.0,3.67,,2.67,5.89,139.6,1.81,637.22,5735,9,42.384384,-87.962654,Applebee's ,Applebee's Neighborhood Grill & Bar,United States,Illinois,IL,Lake County,Gurnee,Hunt Club Road
353,0.75,0.56,4.67,3.5,4.33,3.4,4.14,3.86,4.14,4.33,,4.0,0.47,3.15,0.75,28.21,395,14,42.845765,-85.622662,Applebee's ,Applebee's Neighborhood Grill & Bar,United States,Michigan,MI,Kent County,Caledonia,Marketplace Drive
354,2.5,1.0,2.1,2.5,2.29,2.14,2.43,2.0,2.43,3.0,,2.21,0.45,0.39,8.53,50.36,705,14,40.77114,-84.16471,Applebee's ,Applebee's Neighborhood Grill & Bar,United States,Ohio,OH,Allen County,Lima,North Eastown Road
355,0.6,3.0,2.67,3.8,3.5,3.33,3.5,3.25,3.0,3.5,,3.38,0.05,0.26,19.14,35.25,282,8,38.966569,-92.370366,Applebee's ,Applebee's Neighborhood Grill & Bar,United States,Missouri,MO,Boone County,Columbia,Interstate 70 Drive Southwest
356,1.27,5.8,3.63,3.0,3.2,3.38,3.82,2.88,3.67,4.33,,3.35,0.85,0.64,18.76,34.29,1166,34,42.65761,-83.46693,Applebee's ,Applebee's Neighborhood Grill & Bar,United States,Michigan,MI,Oakland County,White Lake charter Township,Highland Road
357,3.2,4.25,3.06,2.8,2.25,3.18,3.2,2.7,2.9,2.5,,3.0,0.54,0.33,5.05,28.81,605,21,40.05176,-75.66426,Applebee's ,Applebee's Neighborhood Grill & Bar,United States,Pennsylvania,PA,Chester County,Exton,Eagleview Boulevard
358,1.29,0.88,1.56,2.29,2.12,1.6,2.21,1.33,1.93,2.43,,1.88,0.55,1.21,0.79,15.03,481,32,41.52171,-88.14142,Applebee's ,Applebee's Neighborhood Grill & Bar,United States,Illinois,IL,Will County,Joliet,West Jefferson Street
359,0.76,1.91,2.84,2.56,2.31,2.87,2.68,2.75,2.7,2.85,,2.68,1.87,0.82,4.74,79.33,12455,157,34.21874,-119.07467,Applebee's ,Applebee's Neighborhood Grill & Bar,United States,California,CA,Ventura County,Camarillo,West Ventura Boulevard
360,0.68,5.4,2.85,3.05,3.0,2.96,2.94,3.0,2.5,2.73,,2.97,2.12,0.32,6.4,52.47,1679,32,40.82655,-73.02,Applebee's ,Applebee's Neighborhood Grill & Bar,United States,New York,NY,Suffolk County,Farmingville,North Ocean Avenue
361,0.42,0.31,2.4,2.58,2.85,1.5,2.75,2.38,2.62,2.4,,2.53,0.51,0.48,0.0,61.47,1045,17,41.22808,-96.13778,Applebee's ,Applebee's Neighborhood Grill & Bar,United States,Nebraska,NE,Douglas County,Omaha,
362,2.0,14.0,2.5,3.0,4.0,2.57,2.71,2.43,2.71,2.67,,2.67,1.36,1.91,17.23,106.93,1604,15,43.1246029,-75.2274379,Applebee's ,Applebee's Neighborhood Grill & Bar,United States,New York,NY,Oneida County,Utica,New York 12
363,0.77,2.83,1.7,1.54,1.33,1.71,1.55,1.64,1.67,2.33,,1.61,0.27,1.29,26.68,26.48,609,23,43.87004,-91.1987,Applebee's ,Applebee's Neighborhood Grill & Bar,United States,Wisconsin,WI,La Crosse County,Onalaska,Wisconsin 16
364,0.84,0.64,2.57,2.96,2.36,3.44,3.09,2.48,2.73,3.07,,2.78,0.65,2.07,0.44,39.35,1810,46,44.04755,-123.1283,Applebee's ,Applebee's Neighborhood Grill & Bar,United States,Oregon,OR,Lane County,Eugene,McKinley Street
365,0.67,2.28,2.48,2.24,2.4,2.32,2.55,2.17,2.9,3.19,,2.34,0.88,1.68,3.71,54.41,4462,82,33.3221693756801,-111.688817860572,Applebee's ,Applebee's Neighborhood Grill & Bar,United States,Arizona,AZ,Maricopa County,Gilbert,East Ray Road
366,0.96,1.33,2.31,2.23,2.19,2.33,2.25,2.29,2.43,2.44,2.5,2.27,0.38,0.86,1.74,60.41,6766,112,42.3258446,-71.0634452,Applebee's ,Applebee's Neighborhood Grill & Bar,United States,Massachusetts,MA,Suffolk County,Boston,Allstate Road
367,0.89,7.5,2.25,1.89,1.0,2.2,2.0,2.43,1.75,1.83,,2.06,1.09,3.24,748.0,44.0,748,17,39.2668342,-80.2868214,Applebee's ,Applebee's Neighborhood Grill & Bar,United States,West Virginia,WV,Harrison County,Clarksburg,Emily Drive
368,0.59,1.69,2.07,2.04,2.31,1.9,2.21,1.97,2.47,2.8,,2.05,0.87,2.53,1.55,29.08,2268,78,38.54836,-122.80746,Applebee's ,Applebee's Neighborhood Grill & Bar,United States,California,CA,Sonoma County,Windsor,Brooks Road South
369,0.88,1.14,1.69,1.61,1.59,1.7,1.47,1.69,1.81,1.65,,1.65,0.51,5.95,1.26,48.03,2978,62,43.1204946,-87.9163151,Applebee's ,Applebee's Neighborhood Grill & Bar,United States,Wisconsin,WI,Milwaukee County,Glendale,
370,0.83,1.75,3.6,3.42,3.62,3.43,3.82,3.18,3.0,3.4,,3.5,0.91,0.66,1.13,29.23,643,22,43.018508,-82.452148,Applebee's ,Applebee's Neighborhood Grill & Bar,United States,Michigan,MI,St. Clair County,Fort Gratiot Township,Pine Grove Avenue
371,1.0,1.67,2.25,2.75,2.67,2.4,1.25,3.75,3.67,5.0,,2.5,0.82,1.1,1.1,13.38,107,8,38.4302,-86.93874,Applebee's ,Applebee's Neighborhood Grill & Bar,United States,Indiana,IN,Dubois County,Jasper,Mannheim Road
372,1.0,5.0,2.67,2.67,1.0,3.0,3.33,2.0,3.33,3.0,,2.67,0.36,4.18,114.0,19.0,114,6,52.2392769,-113.8186569,Applebee's ,Applebee's Neighborhood Grill & Bar,Canada,Alberta,AB,Division No. 8,Red Deer,22 Street
373,0.67,0.84,2.07,2.57,2.42,2.31,2.47,2.19,2.65,2.89,,2.37,3.95,0.48,1.52,56.0,1960,35,28.1279975,-80.6722019,Applebee's ,Applebee's Neighborhood Grill & Bar,United States,Florida,FL,Brevard County,Melbourne,West Eau Gallie Boulevard
374,2.3,2.3,2.43,2.7,2.6,2.48,3.19,1.94,3.13,3.17,,2.52,0.49,0.8,1.71,56.88,1877,33,39.98508,-83.15255,Applebee's ,Applebee's Neighborhood Grill & Bar,United States,Ohio,OH,Franklin County,Hilliard,Westchester Woods Boulevard
375,1.0,5.0,2.0,1.67,2.5,1.7,2.0,1.67,1.83,2.0,,1.83,2.1,1.31,3.19,56.17,674,12,35.27709,-81.53345,Applebee's ,Applebee's Neighborhood Grill & Bar,United States,North Carolina,NC,Cleveland County,Shelby,Earl Road
376,0.58,4.78,2.58,2.45,1.67,2.67,2.17,2.68,2.27,2.18,1.0,2.56,0.7,1.07,7.63,15.31,796,52,34.550863,-112.432725,Applebee's ,Applebee's Neighborhood Grill & Bar,United States,Arizona,AZ,Yavapai County,Prescott,Arizona 69
377,0.73,5.33,1.75,2.09,2.33,1.88,2.33,1.71,2.44,3.0,2.0,2.0,0.87,1.73,335.0,18.21,346,19,35.6531306,-80.4585495,Applebee's ,Applebee's Neighborhood Grill & Bar,United States,North Carolina,NC,Rowan County,Salisbury,Faith Road
378,0.54,4.71,2.86,2.88,3.71,2.7,2.85,2.9,3.05,2.93,,2.88,1.53,0.91,17.66,75.58,3023,40,28.04657,-82.73905,Applebee's ,Applebee's Neighborhood Grill & Bar,United States,Florida,FL,Pinellas County,Clearwater,US Highway 19 North
379,0.62,1.5,2.43,2.59,2.27,2.7,2.7,2.3,2.46,2.24,,2.53,0.59,1.02,5.52,56.11,3086,55,30.01074,-97.8631,Applebee's ,Applebee's Neighborhood Grill & Bar,United States,Texas,TX,Hays County,Kyle,Kyle Centre Drive
380,0.67,2.18,2.43,2.57,2.82,2.38,2.53,2.38,2.41,3.0,,2.51,0.72,0.99,3.27,23.2,812,35,30.72784,-86.56891,Applebee's ,Applebee's Neighborhood Grill & Bar,United States,Florida,FL,Okaloosa County,Crestview,Rasberry Road
381,2.0,8.0,2.17,2.5,4.5,2.0,2.78,1.78,2.78,2.86,,2.28,1.1,0.19,21.77,39.22,706,18,40.72729,-84.0716,Applebee's ,Applebee's Neighborhood Grill & Bar,United States,Ohio,OH,Allen County,Lima,Roschman Avenue
382,1.75,2.67,3.36,2.88,3.5,3.06,3.36,3.0,2.73,3.0,,3.18,0.41,1.11,3.93,34.05,749,22,42.29677,-85.65441,Applebee's ,Applebee's Neighborhood Grill & Bar,United States,Michigan,MI,Kalamazoo County,Kalamazoo,West Main Street
383,0.83,2.67,2.6,2.5,4.0,2.0,2.4,,2.0,3.33,,2.55,0.14,40.42,2.19,18.0,198,11,40.639624,-79.938709,Applebee's ,Applebee's Neighborhood Grill & Bar,United States,Pennsylvania,PA,Allegheny County,Gibsonia,Grandview Crossing
384,1.8,2.5,3.44,2.2,2.0,3.4,2.86,3.14,2.86,2.75,,3.0,2.18,0.01,9.63,53.93,755,14,34.8274266,-87.6414791,Applebee's ,Applebee's Neighborhood Grill & Bar,United States,Alabama,AL,Lauderdale County,Florence,Florence Boulevard
385,0.86,3.33,2.5,3.71,3.0,3.2,3.83,2.83,3.5,3.67,,3.15,1.74,3.11,2.32,28.85,375,13,44.6958754,-73.4938614,Applebee's ,Applebee's Neighborhood Grill & Bar,United States,New York,NY,Clinton County,Plattsburgh,Centre Drive
386,0.94,6.0,3.06,3.44,2.4,3.4,3.65,2.81,3.65,3.78,,3.26,0.44,0.93,21.73,36.37,1273,35,46.733024,-117.0381152,Applebee's ,Applebee's Neighborhood Grill & Bar,United States,Idaho,ID,Latah County,Moscow,War Bonnet Drive
387,1.04,1.79,1.93,2.12,2.26,1.88,2.0,2.04,2.04,2.0,,2.02,2.64,0.71,3.62,45.15,4786,106,38.780117,-77.079956,Applebee's ,Applebee's Neighborhood Grill & Bar,United States,Virginia,VA,Fairfax County,Alexandria,Richmond Highway
388,0.77,3.6,2.6,2.54,3.0,2.44,2.64,2.36,2.64,3.0,,2.57,3.36,0.99,8.58,113.3,2606,23,39.829198,-75.093526,Applebee's ,Applebee's Neighborhood Grill & Bar,United States,New Jersey,NJ,Gloucester County,Deptford Township,Deptford Center Road
389,1.5,6.5,1.67,2.67,3.5,1.85,2.14,2.14,2.57,2.67,,2.07,0.46,6.97,25.18,19.2,288,15,39.6614606,-74.9633684,Applebee's ,Applebee's Neighborhood Grill & Bar,United States,New Jersey,NJ,Gloucester County,Monroe Township,South Black Horse Pike
390,0.82,9.33,2.57,2.94,2.33,2.82,3.4,2.07,3.07,3.1,,2.77,3.82,2.67,18.47,96.1,2979,31,28.3310791,-81.5321937,Applebee's ,Applebee's Neighborhood Grill & Bar,United States,Florida,FL,Osceola County,Celebration,West Irlo Bronson Memorial Highway
391,2.5,6.0,2.6,3.5,5.0,2.5,3.5,,4.5,,,2.86,,0.0,35.0,5.0,35,7,44.889461,-97.072169,Applebee's ,Applebee's Neighborhood Grill & Bar,United States,South Dakota,SD,Codington County,Watertown,9th Avenue Southeast
392,2.0,1.25,3.0,3.0,2.75,3.2,2.75,2.75,3.0,2.33,,3.0,1.25,0.66,1.71,31.67,285,9,44.6823302,-93.2887474,Applebee's ,Applebee's Neighborhood Grill & Bar,United States,Minnesota,MN,Dakota County,Lakeville,Kenrick Avenue
393,0.85,1.32,2.76,2.14,2.22,2.58,2.72,2.12,2.74,2.66,,2.42,1.13,0.4,14.23,191.71,26264,137,37.691724,-121.06236,Applebee's ,Applebee's Neighborhood Grill & Bar,United States,California,CA,Stanislaus County,Modesto,Sisk Road
394,1.89,0.44,2.06,2.67,2.17,2.5,2.08,2.46,2.85,2.71,,2.27,0.23,0.33,0.2,51.58,1341,26,41.293038,-96.1202709,Applebee's ,Applebee's Neighborhood Grill & Bar,United States,Nebraska,NE,Douglas County,Omaha,West Maple Road
395,0.79,0.62,2.83,2.48,2.62,2.65,2.85,2.42,2.69,3.25,,2.63,1.04,7.59,0.17,143.25,7449,52,33.43695,-111.71847,Applebee's ,Applebee's Neighborhood Grill & Bar,United States,Arizona,AZ,Maricopa County,Mesa,North Higley Road
396,1.22,5.67,2.45,2.0,2.0,2.29,2.0,2.5,2.56,3.0,,2.25,0.52,0.83,93.1,47.05,941,20,34.795348,-92.2213672,Applebee's ,Applebee's Neighborhood Grill & Bar,United States,Arkansas,AR,Pulaski County,North Little Rock,Warden Road
397,0.92,1.27,1.83,3.31,2.36,2.79,2.64,2.17,3.08,3.75,,2.6,1.24,3.04,1.28,50.48,1262,25,26.650652,-80.1464518,Applebee's ,Applebee's Neighborhood Grill & Bar,United States,Florida,FL,Palm Beach County,Greenacres,Forest Hill Boulevard
398,1.24,4.43,2.0,2.71,3.0,2.16,2.89,1.74,2.56,2.73,,2.32,0.51,2.05,4.33,40.79,1550,38,39.7405919749165,-105.118353614267,Applebee's ,Applebee's Neighborhood Grill & Bar,United States,Colorado,CO,Jefferson County,Denver,West Colfax Avenue
399,2.75,6.5,2.82,4.0,1.5,3.38,3.29,3.14,3.0,3.0,,3.13,1.22,0.33,16.8,23.73,356,15,43.2239046,-71.4898418,Applebee's ,Applebee's Neighborhood Grill & Bar,United States,New Hampshire,NH,Merrimack County,Concord,Franklin Pierce Highway
400,1.0,4.0,2.8,3.8,3.0,3.38,3.8,2.8,4.2,4.33,,3.3,1.74,3.75,5.33,57.0,570,10,44.195304,-70.524802,Applebee's ,Applebee's Neighborhood Grill & Bar,United States,Maine,ME,Oxford County,Oxford,Main Street
401,0.94,3.43,2.37,2.22,2.5,2.23,2.13,2.45,2.23,2.53,,2.29,1.0,0.63,12.01,27.27,1691,62,31.857207,-81.570756,Applebee's ,Applebee's Neighborhood Grill & Bar,United States,Georgia,GA,Liberty County,Hinesville,East Oglethorpe Highway
402,1.12,5.88,1.69,2.19,1.62,1.98,1.96,1.93,2.22,2.37,,1.93,1.73,0.72,3.17,86.44,4754,55,40.6606775,-74.1729273,Applebee's ,Applebee's Neighborhood Grill & Bar,United States,New Jersey,NJ,Union County,Elizabeth,Kapkowski Road
403,1.83,3.25,2.0,2.5,3.75,1.69,2.75,1.75,2.75,2.8,,2.18,1.2,0.32,1.79,72.88,1239,17,39.389654,-84.5099794,Applebee's ,Applebee's Neighborhood Grill & Bar,United States,Ohio,OH,Butler County,Hamilton,Hamilton Princeton Road
404,0.84,8.83,1.44,1.5,1.17,1.51,1.59,1.31,1.72,1.87,,1.47,0.62,2.24,16.1,30.73,1813,59,33.85652,-84.20776,Applebee's ,Applebee's Neighborhood Grill & Bar,United States,Georgia,GA,DeKalb County,Tucker,Lawrenceville Highway
405,1.12,1.62,2.52,2.23,2.52,2.29,2.37,2.4,2.46,2.19,,2.38,0.52,0.45,0.74,69.67,3832,55,42.22555,-83.48568,Applebee's ,Applebee's Neighborhood Grill & Bar,United States,Michigan,MI,Wayne County,Belleville,Belleville Road
406,1.0,2.5,2.86,3.14,1.25,3.7,3.29,2.71,2.86,5.0,,3.0,1.55,1.86,3.94,18.36,257,14,30.1768391,-92.0764355,Applebee's ,Applebee's Neighborhood Grill & Bar,United States,Louisiana,LA,Lafayette Parish,Lafayette,Johnston Street
407,0.57,3.23,1.7,2.09,1.69,2.02,1.92,2.04,2.07,2.41,,1.95,1.83,0.67,7.54,71.29,3921,55,40.928733,-73.85489,Applebee's ,Applebee's Neighborhood Grill & Bar,United States,New York,NY,Westchester County,Yonkers,Mall Walk
408,5.0,5.0,2.6,1.0,5.0,1.8,4.0,,2.0,2.5,,2.33,0.8,0.0,4.0,0.83,5,6,42.9989375,-84.1184294,Applebee's ,Applebee's Neighborhood Grill & Bar,United States,Michigan,MI,Shiawassee County,Corunna,East M 21
409,1.1,2.0,2.79,3.0,2.67,3.0,3.07,2.65,2.97,3.25,,2.89,0.82,0.82,4.37,66.0,4158,63,33.377586799124,-111.859693034724,Applebee's ,Applebee's Neighborhood Grill & Bar,United States,Arizona,AZ,Maricopa County,Mesa,South Alma School Road
410,2.5,6.0,1.0,2.5,1.0,1.5,2.0,1.0,2.0,1.0,,1.43,0.86,0.46,45.0,6.43,45,7,30.93739,-84.0098797,Applebee's ,Applebee's Neighborhood Grill & Bar,United States,Georgia,GA,Thomas County,Thomasville,U.S. 19
411,1.67,1.67,2.5,3.5,3.33,2.6,2.5,3.25,2.38,3.0,,2.88,0.17,4.52,2.8,48.94,783,16,38.7795459,-93.7381215,Applebee's ,Applebee's Neighborhood Grill & Bar,United States,Missouri,MO,Johnson County,Warrensburg,Cooper Boulevard
412,11.0,5.0,1.82,5.0,1.0,2.3,2.33,1.83,2.4,3.25,,2.08,1.39,2.45,0.92,63.5,762,12,42.8904042816179,-70.8712950315162,Applebee's ,Applebee's Neighborhood Grill & Bar,United States,New Hampshire,NH,Rockingham County,Seabrook,Lafayette Road
413,0.49,7.71,1.75,2.46,1.29,2.35,2.73,1.77,2.97,3.42,,2.23,2.04,2.31,21.24,127.97,7806,61,40.6629410716102,-73.7197458726106,Applebee's ,Applebee's Neighborhood Grill & Bar,United States,New York,NY,Nassau County,Valley Stream,
414,1.4,1.59,2.02,1.95,1.97,2.0,2.29,1.74,2.08,2.61,,1.99,1.09,1.54,1.1,72.36,7308,101,32.9972349,-96.8570661,Applebee's ,Applebee's Neighborhood Grill & Bar,United States,Texas,TX,Denton County,Dallas,Frankford Road
415,1.43,2.4,3.5,1.86,2.8,2.83,2.88,3.0,3.0,3.5,,2.82,5.6,0.19,2.64,77.24,1313,17,44.7449798447924,-93.2846472308487,Applebee's ,Applebee's Neighborhood Grill & Bar,United States,Minnesota,MN,Dakota County,Burnsville,Burnsville Center
416,1.07,3.43,2.12,1.87,2.29,1.92,2.07,1.93,2.4,2.0,,2.0,1.34,0.17,0.39,47.58,1475,31,39.29734,-84.3145399,Applebee's ,Applebee's Neighborhood Grill & Bar,United States,Ohio,OH,Warren County,Mason,Mason Montgomery Road
417,1.0,4.5,2.27,3.0,1.25,2.94,3.27,2.0,3.0,3.0,,2.64,0.33,5.3,18.16,21.77,479,22,39.4914789,-84.3295145,Applebee's ,Applebee's Neighborhood Grill & Bar,United States,Ohio,OH,Warren County,Middletown,Towne Boulevard
418,0.82,2.12,2.15,2.12,1.98,2.21,2.26,2.02,2.43,2.43,2.88,2.13,1.28,1.49,3.16,80.49,21329,265,38.13566,-122.21868,Applebee's ,Applebee's Neighborhood Grill & Bar,United States,California,CA,Solano County,Vallejo,Admiral Callaghan Lane
419,0.67,4.0,2.11,1.89,1.78,2.03,1.86,2.14,2.41,2.5,1.0,2.0,0.95,10.67,27.07,114.16,5137,45,33.55204,-84.2713,Applebee's ,Applebee's Neighborhood Grill & Bar,United States,Georgia,GA,Clayton County,Stockbridge,Georgia 138
420,1.07,1.07,1.47,2.64,2.07,2.0,1.86,2.14,2.36,2.5,,2.03,0.87,0.75,0.48,33.79,980,29,33.9910153,-80.9749961,Applebee's ,Applebee's Neighborhood Grill & Bar,United States,South Carolina,SC,Richland County,Columbia,Devine Street
421,0.88,1.29,1.87,2.65,2.5,2.11,2.56,2.0,2.38,2.64,,2.28,1.14,2.42,3.1,85.0,2720,32,36.77023,-76.2517,Applebee's ,Applebee's Neighborhood Grill & Bar,United States,Virginia,VA,,Chesapeake,Sams Circle
422,0.84,4.72,3.3,3.48,3.39,3.4,3.26,3.57,3.43,3.43,,3.4,0.75,1.56,7.62,43.54,4485,103,34.06345,-117.22236,Applebee's ,Applebee's Neighborhood Grill & Bar,United States,California,CA,San Bernardino County,Redlands,West Redlands Boulevard
423,0.67,2.75,2.0,3.67,4.25,2.55,2.71,3.17,3.33,4.75,,3.0,0.88,3.13,2.26,14.8,222,15,39.56326,-76.97136,Applebee's ,Applebee's Neighborhood Grill & Bar,United States,Maryland,MD,Carroll County,Westminster,Baltimore Boulevard
424,1.08,12.5,2.29,3.31,3.0,2.76,2.77,2.92,2.77,2.71,,2.78,1.45,1.05,67.69,73.78,1992,27,40.29397,-74.68256,Applebee's ,Applebee's Neighborhood Grill & Bar,United States,New Jersey,NJ,Mercer County,Trenton,U.S. Highway 1
425,0.7,1.83,2.93,2.3,2.33,2.68,2.94,2.31,2.82,3.36,,2.56,1.3,1.58,2.33,60.32,2051,34,42.44618,-83.123057,Applebee's ,Applebee's Neighborhood Grill & Bar,United States,Michigan,MI,Wayne County,Detroit,West 8 Mile Road
426,1.11,1.92,1.75,1.67,1.69,1.72,1.53,1.89,1.79,2.0,,1.71,1.85,0.78,7.99,37.84,1438,38,31.528689,-97.174637,Applebee's ,Applebee's Neighborhood Grill & Bar,United States,Texas,TX,McLennan County,Waco,North Valley Mills Drive
427,1.36,2.67,2.26,2.07,1.89,2.29,2.44,1.8,2.94,3.29,,2.18,1.0,0.24,12.0,30.73,1014,33,42.3509699,-88.26645,Applebee's ,Applebee's Neighborhood Grill & Bar,United States,Illinois,IL,McHenry County,McHenry,North Richmond Road
428,0.8,0.8,2.5,1.8,1.2,3.25,2.0,2.5,1.33,1.5,,2.11,0.68,14.9,0.06,17.44,157,9,37.72326,-97.46596,Applebee's ,Applebee's Neighborhood Grill & Bar,United States,Kansas,KS,Sedgwick County,Wichita,West 21st Street
429,0.75,2.5,2.93,2.8,2.5,3.0,3.19,2.5,3.31,3.18,,2.86,0.96,1.89,5.37,63.37,2218,35,27.9168723,-82.7336277,Applebee's ,Applebee's Neighborhood Grill & Bar,United States,Florida,FL,Pinellas County,Clearwater,East Bay Drive
430,1.33,6.0,1.0,2.33,1.0,1.67,1.0,2.33,1.0,1.0,,1.57,0.38,0.17,12.67,46.86,328,7,34.303144,-86.279832,Applebee's ,Applebee's Neighborhood Grill & Bar,United States,Alabama,AL,Marshall County,Guntersville,U.S. 431
431,0.69,3.61,2.44,2.7,2.64,2.58,3.03,2.15,2.71,2.9,1.0,2.6,1.18,1.25,8.71,166.26,25271,152,38.5415351,-121.7325568,Applebee's ,Applebee's Neighborhood Grill & Bar,United States,California,CA,Yolo County,Davis,Research Park Drive
432,1.8,3.67,2.22,2.2,2.67,2.09,2.14,2.29,2.14,1.67,,2.21,0.14,0.02,412.0,29.43,412,14,42.0970247705944,-75.9821554493475,Applebee's ,Applebee's Neighborhood Grill & Bar,United States,New York,NY,Broome County,Vestal,Vestal Road
433,0.71,2.62,2.25,3.12,3.5,2.48,2.57,2.86,2.62,2.83,,2.76,0.25,1.39,1.45,22.0,638,29,40.264535,-75.317054,Applebee's ,Applebee's Neighborhood Grill & Bar,United States,Pennsylvania,PA,Montgomery County,Hatfield,Forty Foot Road
434,0.88,1.19,2.41,2.57,2.14,2.79,2.61,2.39,2.87,3.05,,2.49,1.9,0.46,4.21,42.41,3350,79,33.3795153,-111.7877941,Applebee's ,Applebee's Neighborhood Grill & Bar,United States,Arizona,AZ,Maricopa County,Mesa,East Baseline Road
435,0.6,1.33,3.19,3.14,3.17,3.16,3.52,2.85,3.15,3.59,,3.16,1.22,1.22,1.48,33.18,1858,56,47.0401898,-122.9332224,Applebee's ,Applebee's Neighborhood Grill & Bar,United States,Washington,WA,Thurston County,Olympia,Capital Mall Drive Southwest
436,0.87,2.48,2.21,1.87,2.07,2.01,2.21,1.84,2.28,2.37,1.5,2.04,3.09,1.52,4.72,93.36,29874,320,37.65367,-122.10614,Applebee's ,Applebee's Neighborhood Grill & Bar,United States,California,CA,Alameda County,Hayward,Southland Drive
437,0.57,10.75,2.88,1.93,2.5,2.26,2.32,2.3,2.26,2.12,,2.28,2.7,1.63,21.0,68.81,3234,47,40.7377091,-73.4173863158691,Applebee's ,Applebee's Neighborhood Grill & Bar,United States,New York,NY,Suffolk County,Farmingdale,Airport Plaza Boulevard
438,1.3,3.6,2.23,3.1,2.8,2.56,2.91,2.4,2.91,3.0,,2.61,0.18,7.53,10.38,19.78,455,23,43.083983,-88.236071,Applebee's ,Applebee's Neighborhood Grill & Bar,United States,Wisconsin,WI,Waukesha County,Pewaukee,Capitol Drive
439,3.0,3.0,3.0,4.5,4.5,3.0,3.75,3.0,3.25,3.67,,3.38,1.79,0.0,26.0,3.38,27,8,34.3246850092378,-88.7034469910157,Applebee's ,Applebee's Neighborhood Grill & Bar,United States,Mississippi,MS,Lee County,Tupelo,County Road 665
440,1.08,4.0,2.15,2.33,1.6,2.4,2.67,1.55,2.58,2.5,,2.24,0.83,3.2,89.61,83.36,2084,25,36.391447,-97.921659,Applebee's ,Applebee's Neighborhood Grill & Bar,United States,Oklahoma,OK,Garfield County,Enid,West Owen K Garriott
441,0.77,0.44,2.6,2.92,2.31,3.86,3.18,2.55,3.0,4.0,,2.78,0.46,0.36,0.06,60.04,1381,23,39.85927,-85.97817,Applebee's ,Applebee's Neighborhood Grill & Bar,United States,Indiana,IN,Marion County,Indianapolis,Pendleton Pike
442,1.33,1.8,2.62,2.5,1.8,3.0,3.57,1.57,2.86,2.25,,2.57,0.72,1.68,6.5,20.36,285,14,33.6377616,-112.230823,Applebee's ,Applebee's Neighborhood Grill & Bar,United States,Arizona,AZ,Maricopa County,Peoria,West Bell Road
443,0.88,2.75,3.71,2.88,3.5,3.18,3.57,2.71,3.43,3.75,,3.27,4.14,4.59,0.24,26.67,400,15,40.492365,-74.860118,Applebee's ,Applebee's Neighborhood Grill & Bar,United States,New Jersey,NJ,Hunterdon County,Flemington,Hart Boulevard
444,0.83,4.25,2.42,3.43,3.88,2.76,2.67,3.29,2.48,2.8,,2.98,1.57,2.56,13.99,98.17,4123,42,42.19876,-83.19215,Applebee's ,Applebee's Neighborhood Grill & Bar,United States,Michigan,MI,Wayne County,Southgate,Eureka Road
445,1.14,1.14,2.12,3.0,2.86,2.25,3.57,1.67,3.29,3.67,,2.53,0.39,1.98,0.53,33.47,502,15,38.9384865,-95.260533,Applebee's ,Applebee's Neighborhood Grill & Bar,United States,Kansas,KS,Douglas County,Lawrence,Iowa Street
446,0.92,6.67,2.82,2.21,2.0,2.58,2.78,2.22,3.0,2.93,,2.5,0.59,1.95,1.01,33.07,1521,46,43.57389,-116.21632,Applebee's ,Applebee's Neighborhood Grill & Bar,United States,Idaho,ID,Ada County,Boise,Elder Street
